FID	id	secteur	commune	antenne_mairie	adresse	perimetre_pave	type_dechet_code	type_dechet	type_conteneur_code	type_conteneur	volume_m3	marque	modele	modele_info_sup	type_avaloir	type_collecteur	nom_collecteur	etat	etat_info_sup	date_info_etat	date_instal_conteneur_sup	type_installation	date_renouvellement_materiel	x_longitude	y_latitude	geom
v_opendata_ctd_pav_tous.fid-26c1a268_169f8be4829_3803	154	Sud	Grenoble	6	Chemin des Alisiers / Rue Paul Helbronner			verre		aérien	3	Quadria	Lineance						Citec__3_A_c					5.741194	45.163993	POINT (5.741193603095908 45.16399289684221)
v_opendata_ctd_pav_tous.fid-26c1a268_169f8be4829_384a	235	Nord-Est	Grenoble	2	Place Bir Hakeim			verre		enterré	4	UTPM ??? à mettre à jour	Ecobox ??? à mettre à jour				août 2011		UTPM ??? à mettre à jour_Ecobox ??? à mettre à jour_4_E_c				août 2011	5.736381	45.188714	POINT (5.736380597707617 45.18871438915809)
v_opendata_ctd_pav_tous.fid-26c1a268_169f8be4829_384b	236	Nord-Est	Grenoble	2	Rue Hébert (vers Caisse d'Epargne) / Passage sous immeuble			verre		aérien	4	Citec	Cyclea Max						Citec_Cyclea Max_4_A_C					5.737119	45.190704	POINT (5.737119137533782 45.190703827703665)
v_opendata_ctd_pav_tous.fid-26c1a268_169f8be4829_384c	237	Sud	Grenoble	4	Chemin de Gordes (près collège Charles Munch)			verre		aérien	2.5	Citec	Cyclea						Citec_Cyclea_2.5_A_c					5.73361	45.17484	POINT (5.733609511788141 45.17484008487377)
v_opendata_ctd_pav_tous.fid-26c1a268_169f8be4829_384d	238	Nord-Est	Grenoble	2	46 Avenue Maréchal Randon / Musée (rampe accès livraisons)			verre		aérien	3	Citec	Cyclea						Citec_Cyclea_3_A_C					5.733916	45.195248	POINT (5.733915718625208 45.19524772389585)
v_opendata_ctd_pav_tous.fid-26c1a268_169f8be4829_384e	239	Nord-Est	Grenoble	2	Rue Lachmann / Quai Jongkind			verre		aérien	4	Citec	Cyclea Max						Citec_Cyclea Max_4_A_C					5.736427	45.201575	POINT (5.736426920335846 45.201575466392036)
v_opendata_ctd_pav_tous.fid-26c1a268_169f8be4829_384f	240	Nord-Est	Grenoble	2	Rue Lachmann / Rue Mortillet			verre		aérien	4	Citec	Cyclea Max						Citec_Cyclea Max_4_A_C					5.736616	45.198218	POINT (5.736615553534766 45.19821828895902)
v_opendata_ctd_pav_tous.fid-26c1a268_169f8be4829_3850	241	Nord-Est	Grenoble	2	Place du Grésivaudan			verre		aérien	3	Citec	Cyclea						Citec_Cyclea_3_A_C					5.73917	45.198967	POINT (5.739169940381774 45.198967170334)
v_opendata_ctd_pav_tous.fid-26c1a268_169f8be4829_3851	242	Nord-Est	Grenoble	2	Place Lavalette / devant Diocèse			verre		aérien	4	Quadria	Lineance						Quadria_Lineance_4_A_C					5.731847	45.193956	POINT (5.731847434400052 45.19395622403511)
v_opendata_ctd_pav_tous.fid-26c1a268_169f8be4829_3852	243	Nord-Est	Grenoble	2	17 Chemin du Halage			verre		aérien	4	UTPM	Ecobox				2016-11-24 / 2012 (été)		UTPM_Ecobox_4_A_C				2016-11-24 / 2012 (été)	5.741982	45.198644	POINT (5.741981962144099 45.198643682190074)
v_opendata_ctd_pav_tous.fid-26c1a268_169f8be4829_3853	244	Nord-Est	Grenoble	2	Rue Bizanet / Rue Emile Ducros			verre		aérien	3	Citec	Cyclea						Citec_Cyclea_3_A_C					5.740353	45.197662	POINT (5.740353496762459 45.19766219410124)
v_opendata_ctd_pav_tous.fid-26c1a268_169f8be4829_3854	246	Nord-Est	Grenoble	2	44 Rue Blanche Monier			verre		enterré	3	Citec	Tulip						Citec_Tulip_3_E_K					5.737939	45.196391	POINT (5.73793875569376 45.196390989074814)
v_opendata_ctd_pav_tous.fid-26c1a268_169f8be4829_3855	247	Nord-Est	Grenoble	2	Rue Saint Ferjus / Avenue Saint Roch / proximité Boulevard Maréchal Leclerc			verre		aérien	3	Citec	Cyclea						Citec_Cyclea_3_A_C					5.739119	45.191452	POINT (5.739119184124602 45.19145180743561)
v_opendata_ctd_pav_tous.fid-26c1a268_169f8be4829_3856	248	Nord-Est	Grenoble	2	Chemin de Ronde / Tour Mont Blanc (Les 3 Tours)			verre		aérien	3	Citec	Cyclea						Citec_Cyclea_3_A_C					5.737471	45.193091	POINT (5.737470920180002 45.1930908798737)
v_opendata_ctd_pav_tous.fid-26c1a268_169f8be4829_3857	249	Nord-Est	Grenoble	2	Chemin de Ronde / Club de Boules (Pétanque Ile Verte)			verre		aérien	3	Citec	Cyclea						Citec_Cyclea_3_A_C					5.737731	45.194312	POINT (5.7377307397788275 45.19431250763993)
v_opendata_ctd_pav_tous.fid-26c1a268_169f8be4829_3858	250	Nord-Est	Grenoble	2	Boulevard Maréchal Leclerc / Rue Commandant L'Herminier			verre		aérien	3	Citec	Cyclea						Citec_Cyclea_3_A_C					5.735679	45.193713	POINT (5.735678556861588 45.193713195683515)
v_opendata_ctd_pav_tous.fid-26c1a268_169f8be4829_3859	251	Nord-Est	Grenoble	2	48 Rue de l'Alma / proximité Rue Très Cloître & Rue Chanrion			verre		aérien	3	Citec	Cyclea						Citec_Cyclea_3_A_C					5.734663	45.191898	POINT (5.7346628042111005 45.19189819244608)
v_opendata_ctd_pav_tous.fid-26c1a268_169f8be4829_385a	252	Sud	Grenoble	4	Rue des Charmilles / Rue Sidonie Jacolin			verre		aérien	4	Citec							Citec__4_A_c					5.727355	45.175627	POINT (5.727354644178932 45.17562663416758)
v_opendata_ctd_pav_tous.fid-26c1a268_169f8be4829_385b	253	Nord-Est	Grenoble	2	Rue de la République / Maison du Tourisme			verre		aérien	3	Quadria	Lineance						Quadria_Lineance_3_A_K					5.729358	45.190498	POINT (5.72935832995042 45.190498536405585)
v_opendata_ctd_pav_tous.fid-26c1a268_169f8be4829_385c	254	Sud	Grenoble	4	Marché d'Intérêt National			verre		aérien	3	Citec							Citec__3_A_c					5.716278	45.171497	POINT (5.716277828267671 45.171496547092296)
v_opendata_ctd_pav_tous.fid-26c1a268_169f8be4829_385d	255	Nord-Est	Grenoble	2	Avenue Félix Viallet / Boulevard Edouard Rey			verre		aérien	3	Quadria	Lineance						Quadria_Lineance_3_A_C					5.722588	45.191458	POINT (5.72258759599055 45.191458441173765)
v_opendata_ctd_pav_tous.fid-26c1a268_169f8be4829_385e	256	Nord-Est	Grenoble	2	22 Quai de France			verre		aérien	3	Citec	Cyclea						Citec_Cyclea_3_A_C					5.721473	45.193525	POINT (5.721473063147578 45.19352531185491)
v_opendata_ctd_pav_tous.fid-26c1a268_169f8be4829_385f	257	Nord-Est	Grenoble	2	Boulevard de l'Esplanade / Boulodrome			verre		aérien	3	Citec	Cyclea						Citec_Cyclea_3_A_C					5.717144	45.196974	POINT (5.717143795646912 45.19697424549627)
v_opendata_ctd_pav_tous.fid-26c1a268_169f8be4829_3860	258	Nord-Est	Grenoble	2	Place du Docteur Girard			verre		aérien	3	Citec	Cyclea						Citec_Cyclea_3_A_C					5.737323	45.19735	POINT (5.737322813091778 45.19735005077265)
v_opendata_ctd_pav_tous.fid-26c1a268_169f8be4829_3861	259	Nord-Est	Grenoble	2	22 Route de Lyon / Clinique vétérinaire / en face du parking Intermarché			verre		aérien	3	Citec	Cyclea						Citec_Cyclea_3_A_C					5.719178	45.194966	POINT (5.719178212029741 45.194966166262255)
v_opendata_ctd_pav_tous.fid-26c1a268_169f8be4829_3862	260	Nord-Est	Grenoble	2	1-3 Cours Jean Jaurès			verre		enterré	4	Citec	Evolution						Citec_Evolution_4_E_k					5.720362	45.191508	POINT (5.720361969874993 45.19150828152411)
v_opendata_ctd_pav_tous.fid-26c1a268_169f8be4829_3863	261	Nord-Est	Grenoble	2	Boulevard Gambetta / Rue Jay			verre		aérien	3	Quadria	Lineance						Quadria_Lineance_3_A_C					5.721433	45.190633	POINT (5.7214327487215435 45.19063284252446)
v_opendata_ctd_pav_tous.fid-26c1a268_169f8be4829_3864	262	Nord-Est	Grenoble	2	Boulevard Gambetta / Cours Lafontaine / Cours Berriat			verre		aérien	4	Quadria	Lineance						Quadria_Lineance_4_A_C					5.723338	45.187943	POINT (5.723338299750704 45.18794258684311)
v_opendata_ctd_pav_tous.fid-26c1a268_169f8be4829_3865	263	Nord-Est	Grenoble	2	57 Route de Lyon (Rond-point / Garage Peugeot Bastille)			verre		aérien	4	Citec	Cyclea Max						Citec_Cyclea Max_4_A_C					5.718491	45.197768	POINT (5.71849145633491 45.197768405598225)
v_opendata_ctd_pav_tous.fid-26c1a268_169f8be4829_3866	264	Nord-Est	Grenoble	2	Place Jacqueline Marval			verre		enterré	4	Citec	Evolution S	Type G4 BAMMENS			2014-11		Citec_Evolution S_4_E_				2014-11	5.720717	45.184746	POINT (5.720716833799368 45.184745644772896)
v_opendata_ctd_pav_tous.fid-26c1a268_169f8be4829_3867	265	Nord-Est	Grenoble	2	Rue Thiers / Rue Génissieu			verre		aérien	3	Quadria	Lineance						Quadria_Lineance_3_A_C					5.720974	45.18707	POINT (5.720974082965079 45.1870696907978)
v_opendata_ctd_pav_tous.fid-26c1a268_169f8be4829_3868	266	Nord-Est	Grenoble	2	Rue André Maginot / Rue Robert Dubarle / Rue Lazare Carnot			verre		enterré	4	Citec							Citec__4_E_					5.725009	45.181894	POINT (5.725009055313145 45.18189430100044)
v_opendata_ctd_pav_tous.fid-26c1a268_169f8be4829_3869	267	Nord-Est	Grenoble	2	75 Cours Jean Jaurès			verre		enterré	4	Quadria	Lineance						Citec__4_E_					5.718205	45.185133	POINT (5.718205302814181 45.18513332246828)
v_opendata_ctd_pav_tous.fid-26c1a268_169f8be4829_386a	268	Nord-Ouest	Grenoble	1	62 Cours Jean Jaurès / Rue Colbert			verre		enterré	4	Citec	Tulip				2013 (décembre)		Citec_Tulip_4_E_K				2013 (décembre)	5.718485	45.186709	POINT (5.718484659350943 45.18670887819919)
v_opendata_ctd_pav_tous.fid-26c1a268_169f8be4829_386b	269	Nord-Ouest	Grenoble	3	Rue Blériot / Rue Léon Bourjade			verre		aérien	2.5	Citec	Cyclea						Citec_Cyclea_2.5_A_c					5.71123	45.171549	POINT (5.711229842626503 45.17154902383779)
v_opendata_ctd_pav_tous.fid-26c1a268_169f8be4829_386c	271	Nord-Ouest	Grenoble	1	22 Cours Jean Jaurès (Garage Galtier)			verre		enterré	3	Citec	Evolution						Citec_Evolution_3_E_k					5.719694	45.190361	POINT (5.719693936381756 45.19036081442572)
v_opendata_ctd_pav_tous.fid-26c1a268_169f8be4829_386d	272	Nord-Ouest	Grenoble	1	34 Cours Jean Jaurès / arrêt tram E			verre		enterré	0	-							-__0_E_		2015-01-XX	matériel neuf		5.719178	45.18884	POINT (5.719178181372223 45.18883994443519)
v_opendata_ctd_pav_tous.fid-26c1a268_169f8be4829_386e	273	Nord-Est	Grenoble	2	53 Cours Jean Jaurès			verre		enterré	3	Citec	Evolution						Citec_Evolution_3_E_k					5.718768	45.186871	POINT (5.71876775864492 45.18687104687137)
v_opendata_ctd_pav_tous.fid-26c1a268_169f8be4829_386f	275	Nord-Ouest	Grenoble	1	Cours Jean Jaurès / Rue Joseph Rey			verre		enterré	4	Citec	Evolution						Citec_Evolution_4_E_k					5.717598	45.184607	POINT (5.717597806700728 45.18460669699584)
v_opendata_ctd_pav_tous.fid-26c1a268_169f8be4829_3870	276	Nord-Ouest	Grenoble	1	Cours Berriat / Rue Joseph Rey			verre		aérien	2.5	Citec	Cyclea						Citec_Cyclea_2.5_A_c					5.716083	45.187477	POINT (5.716082738507591 45.187477015942854)
v_opendata_ctd_pav_tous.fid-26c1a268_169f8be4829_3871	277	Nord-Ouest	Grenoble	1	34 Rue Emile Gueymard (face parking SNCF)			verre		aérien	3	Citec	Cyclea						Citec_Cyclea_3_A_c					5.714275	45.193663	POINT (5.714275144785286 45.193662911163386)
v_opendata_ctd_pav_tous.fid-26c1a268_169f8be4829_3872	278	Nord-Ouest	Grenoble	1	Quai Claude Bernard / Rue Edouard Branly			verre		aérien	3	Citec	Cyclea						Citec_Cyclea_3_A_c					5.717513	45.192788	POINT (5.717512956465911 45.192788340409614)
v_opendata_ctd_pav_tous.fid-26c1a268_169f8be4829_3873	279	Nord-Ouest	Grenoble	1	Rue Henri Tarzé / Rue Charles Berthier			verre		aérien	3	Citec	Cyclea						Citec_Cyclea_3_A_c					5.710292	45.200175	POINT (5.710292049727 45.20017532518551)
v_opendata_ctd_pav_tous.fid-26c1a268_169f8be4829_3874	280	Nord-Ouest	Grenoble	1	Rue Ernest Hareux / Rue Joseph Lyonnaz			verre		aérien	3	Citec	Cyclea						Citec_Cyclea_3_A_c					5.711309	45.199703	POINT (5.711308982486019 45.199702969183946)
v_opendata_ctd_pav_tous.fid-26c1a268_169f8be4829_3875	281	Nord-Ouest	Grenoble	1	7 Rue du Villard de Lans			verre		aérien	3	Citec	Cyclea						Citec_Cyclea_3_A_c					5.712713	45.197686	POINT (5.71271274959843 45.1976859842613)
v_opendata_ctd_pav_tous.fid-26c1a268_169f8be4829_3876	282	Nord-Ouest	Grenoble	1	Rue Denfert Rochereau / Square R. Genin			verre		aérien	3	Citec	Cyclea						Citec_Cyclea_3_A_c					5.716714	45.188886	POINT (5.7167140878915985 45.18888585513994)
v_opendata_ctd_pav_tous.fid-26c1a268_169f8be4829_3877	283	Nord-Ouest	Grenoble	1	Quai de la Graille (tennis) Ex n°26			verre		aérien	2.5	Citec							Citec__2.5_A_c					5.714306	45.199185	POINT (5.714305847364599 45.19918491888864)
v_opendata_ctd_pav_tous.fid-26c1a268_169f8be4829_3878	284	Nord-Ouest	Grenoble	1	Rue Arago / Rue de la Scierie			verre		aérien	2.5	Citec	Cyclea						Citec_Cyclea_2.5_A_c					5.712734	45.196135	POINT (5.712734059472899 45.19613475598857)
v_opendata_ctd_pav_tous.fid-26c1a268_169f8be4829_3879	285	Nord-Ouest	Grenoble	1	116B Cours Jean Jaurès / Rue Pierre Dupont			verre		enterré	4	Citec	Evolution						Citec_Evolution_4_E_k					5.716526	45.181341	POINT (5.716525959597528 45.18134119814815)
v_opendata_ctd_pav_tous.fid-26c1a268_169f8be4829_387a	286	Nord-Ouest	Grenoble	3	30-32 Cours de la Libération / Chemin des Marronniers			verre		aérien	3	Quadria	Lineance						Citec_Cyclea_3_A_c					5.715188	45.17707	POINT (5.71518816047853 45.17707031236492)
v_opendata_ctd_pav_tous.fid-26c1a268_169f8be4829_387b	287	Nord-Ouest	Grenoble	3	78 Cours de la Libération / Allée Vaucanson			verre		aérien	3	Quadria	Lineance	Citec_Cyclea_3,0_c_till_2019-01-25					Citec_Cyclea_3_A_c					5.713508	45.17203	POINT (5.713507848490544 45.17202970565789)
v_opendata_ctd_pav_tous.fid-26c1a268_169f8be4829_387c	288	Nord-Ouest	Grenoble	3	Rue Louise Michel / Rue Blériot			verre		aérien	3	Quadria	Lineance	Citec_Cyclea_3,0_c_till_2019-01-25					Citec_Cyclea_3_A_c					5.710522	45.169917	POINT (5.710522259990614 45.16991685387027)
v_opendata_ctd_pav_tous.fid-26c1a268_169f8be4829_387d	289	Nord-Ouest	Grenoble	3	Avenue Beaumarchais / Rue Claude Lorrain / Lycée Hôtelier			verre		aérien	3	Quadria	Lineance	Citec_Cyclea_3,0_c_till_2019-01-25					Citec_Cyclea_3_A_c				2019-01-25	5.709015	45.168171	POINT (5.709015443299513 45.16817055559631)
v_opendata_ctd_pav_tous.fid-26c1a268_169f8be4829_387e	290	Nord-Ouest	Grenoble	3	122 Cours de la Libération / Hôtel Lesdiguières / contre-allée			verre		aérien	3	Quadria	Lineance						UTPM_Ecobox_3_A_c					5.711625	45.166473	POINT (5.7116247591773215 45.16647268395954)
v_opendata_ctd_pav_tous.fid-26c1a268_169f8be4829_387f	291	Nord-Ouest	Grenoble	3	196-198 Cours de la Libération			verre		aérien	4	Quadria	Lineance	2019-01-25			août 2011		UTPM_Ecobox_4_A_c				août 2011	5.710493	45.163003	POINT (5.710493189078842 45.16300311919565)
v_opendata_ctd_pav_tous.fid-26c1a268_169f8be4829_3880	292	Nord-Ouest	Grenoble	3	216-226 Cours de la Libération (Face Peugeot)			verre		aérien	4	Quadria	Lineance	UTPM_Ecobox_c_3,0_till_2019-01-25			août 2011		UTPM_Ecobox_3_A_c				2019-01-25 / août 2011	5.709771	45.161124	POINT (5.709770566905319 45.16112449717144)
v_opendata_ctd_pav_tous.fid-26c1a268_169f8be4829_3881	293	Nord-Ouest	Grenoble	3	163 Cours de la Libération / Avenue de Beauvert			verre		aérien	3	UTPM	Ecobox						UTPM_Ecobox_3_A_c					5.712014	45.166714	POINT (5.712013521297967 45.166714007822236)
v_opendata_ctd_pav_tous.fid-26c1a268_169f8be4829_3882	294	Nord-Ouest	Grenoble	3	189 Cours de la Libération			verre		aérien	3	UTPM	Ecobox				août 2011		UTPM_Ecobox_3_A_c				août 2011	5.711015	45.163729	POINT (5.711015439470874 45.16372951699796)
v_opendata_ctd_pav_tous.fid-26c1a268_169f8be4829_3883	295	Nord-Ouest	Grenoble	3	143 Rue des Alliés / Cours de la Libération			verre		aérien	4	Quadria	Lineance						Citec_Cyclea_3_A_c				2019-02-25	5.714795	45.174196	POINT (5.7147949433143115 45.17419567312558)
v_opendata_ctd_pav_tous.fid-26c1a268_169f8be4829_3884	296	Nord-Ouest	Grenoble	3	31-33 Cours de la Libération / Avenue Rochambeau			verre		aérien	3	Quadria	Lineance						Citec_Cyclea_3_A_c				2019-02-25	5.715593	45.177313	POINT (5.715592774956232 45.17731289341624)
v_opendata_ctd_pav_tous.fid-26c1a268_169f8be4829_3885	297	Nord-Est	Grenoble	2	8 Boulevard Maréchal Lyautey / Place André Malraux / Quartier Hoche			verre		aérien	3	Citec	Cyclea						Citec_Cyclea_3_A_C					5.729966	45.185573	POINT (5.729966323175692 45.18557329003988)
v_opendata_ctd_pav_tous.fid-26c1a268_169f8be4829_3886	298	Nord-Ouest	Grenoble	3	11 Cours de la Libération			verre		aérien	3	Quadria	Lineance						Citec_Cyclea Max_4_A_c				2019-02-25	5.716203	45.179183	POINT (5.716202649983573 45.179182852189065)
v_opendata_ctd_pav_tous.fid-26c1a268_169f8be4829_3887	299	Nord-Ouest	Grenoble	1	Rue du Docteur Calmette / Rue du Docteur Roux			verre		aérien	3	Quadria	Lineance						Citec__3_A_c					5.708486	45.180781	POINT (5.708485683679722 45.18078146097495)
v_opendata_ctd_pav_tous.fid-26c1a268_169f8be4829_3888	300	Nord-Ouest	Grenoble	3	Rue des Eaux Claires / Rue Henri Dunant / Mairie annexe			verre		aérien	3	Quadria	Lineance						Citec_Cyclea_3_A_c					5.708474	45.175	POINT (5.708474062423486 45.1750001751966)
v_opendata_ctd_pav_tous.fid-26c1a268_169f8be4829_3889	301	Nord-Ouest	Grenoble	1	35 Rue Charrel			verre		aérien	3	Quadria	Lineance						Citec_Cyclea_3_A_c					5.712873	45.182353	POINT (5.712873441892509 45.18235316764684)
v_opendata_ctd_pav_tous.fid-26c1a268_169f8be4829_388a	302	Nord-Ouest	Grenoble	1	Rue Jean Prévost / Rue de Londres			verre		aérien	3	Quadria	Lineance						Citec__3_A_c					5.715861	45.184201	POINT (5.715860893357728 45.18420133646343)
v_opendata_ctd_pav_tous.fid-26c1a268_169f8be4829_388b	303	Nord-Ouest	Grenoble	1	Rue de New York / Rue de Paris			verre		aérien	4	Quadria	Lineance						Citec__3_A_c				2019-02-25	5.714281	45.18389	POINT (5.714281258901417 45.18389034340471)
v_opendata_ctd_pav_tous.fid-26c1a268_169f8be4829_388c	304	Nord-Est	Grenoble	5	Rue Paul Claudel / Rue Gérard Philippe			verre		enterré	4	Citec	Evolution				2015-02-16 date mail OPE		Citec_Evolution_4_E_				2015-02-16 date mail OPE	5.733854	45.171571	POINT (5.733854036095804 45.17157080259997)
v_opendata_ctd_pav_tous.fid-26c1a268_169f8be4829_388d	305	Nord-Ouest	Grenoble	1	64 Avenue des Martyrs / Rue de Vassieux en Vercors / Cité SNCF			verre		enterré	4	Plastic Omnium	Minimax 4				2018-07-16		Plastic Omnium_Minimax 4_4_E_k				2018-07-16	5.707439	45.200307	POINT (5.70743876283019 45.20030727990805)
v_opendata_ctd_pav_tous.fid-26c1a268_169f8be4829_388e	306	Nord-Ouest	Grenoble	1	Rue Félix Esclangon / Rue Pierre Sémard			verre		enterré	4	Citec	Evolution						Citec_Evolution_4_E_k					5.709108	45.193083	POINT (5.709107909519747 45.193083314136935)
v_opendata_ctd_pav_tous.fid-26c1a268_169f8be4829_388f	307	Nord-Ouest	Grenoble	1	Av du Doyen Louis Weil / Place de Sfax / Rue Félix Esclangon			verre		enterré	4	Citec	Evolution						Citec_Evolution_4_E_k					5.71149	45.194622	POINT (5.711489988160604 45.19462200325507)
v_opendata_ctd_pav_tous.fid-26c1a268_169f8be4829_3890	308	Nord-Ouest	Grenoble	1	Rue D'Alembert / Rue Anthoard			verre		aérien	4	Quadria	Lineance						Citec_Cyclea Max_4_A_c					5.711241	45.188957	POINT (5.711240815163714 45.18895709210334)
v_opendata_ctd_pav_tous.fid-26c1a268_169f8be4829_3891	309	Nord-Ouest	Grenoble	1	Rue Diderot / face EDF			verre		aérien	3	Quadria	Lineance						Citec_Cyclea_3_A_c					5.704194	45.191763	POINT (5.7041941440966255 45.191762832808934)
v_opendata_ctd_pav_tous.fid-26c1a268_169f8be4829_3892	310	Nord-Ouest	Grenoble	1	Cours Berriat / Rue Aimé Berey			verre		aérien	4	Citec	Cyclea Max						Citec_Cyclea Max_4_A_c					5.709529	45.188562	POINT (5.709528524097665 45.188562177181886)
v_opendata_ctd_pav_tous.fid-26c1a268_169f8be4829_3893	311	Nord-Ouest	Grenoble	3	Avenue Rhin Danube (face au n°66) / Rue Martin Luther King			verre		aérien	4	Villiger	City-Line						Villiger_City-Line_4_A_k					5.705138	45.17312	POINT (5.70513833853044 45.17312009462074)
v_opendata_ctd_pav_tous.fid-26c1a268_169f8be4829_3894	312	Nord-Ouest	Grenoble	1	Rue Marx Dormoy / Rue Commandant Debelle			verre		aérien	4	Quadria	Lineance						Citec_Cyclea Max_4_A_c					5.71012	45.187341	POINT (5.71012032995629 45.187340958286576)
v_opendata_ctd_pav_tous.fid-26c1a268_169f8be4829_3895	313	Nord-Ouest	Grenoble	1	Rue René Thomas / Rue Amédée Morel			verre		enterré	4	Citec	Tulip				2012 (mars)		Citec_Tulip_4_E_k				2012 (mars)	5.708889	45.189922	POINT (5.708888955497388 45.18992174099539)
v_opendata_ctd_pav_tous.fid-26c1a268_169f8be4829_3896	314	Nord-Ouest	Grenoble	1	Rue du Drac / Rue Belin			verre		aérien	3	Quadria	Lineance						Citec_Cyclea_3_A_c					5.706893	45.184714	POINT (5.706893171705785 45.184713688226644)
v_opendata_ctd_pav_tous.fid-26c1a268_169f8be4829_3897	315	Nord-Ouest	Grenoble	1	63 Rue Nicolas Chorier / face Rue Mozart			verre		aérien	4	Quadria	Lineance						Citec_Cyclea Max_4_A_c					5.709404	45.184442	POINT (5.709403980109735 45.18444184026812)
v_opendata_ctd_pav_tous.fid-26c1a268_169f8be4829_3898	316	Nord-Ouest	Grenoble	1	82 Rue Nicolas Chorier / Rue du Drac			verre		aérien	2.5	Quadria	Lineance						Citec_Cyclea_2.5_A_c					5.706785	45.182943	POINT (5.706784789296792 45.18294325173801)
v_opendata_ctd_pav_tous.fid-26c1a268_169f8be4829_3899	317	Nord-Ouest	Grenoble	1	Rue du Docteur Greffier / angle Rue Ampère / Ecole Joseph Vallier			verre		aérien	3	Quadria	Lineance						Citec__3_A_c					5.705424	45.181533	POINT (5.705424109260634 45.181533398925716)
v_opendata_ctd_pav_tous.fid-26c1a268_169f8be4829_389a	318	Nord-Ouest	Grenoble	1	Rue Ampère / Rue Léon Sestier			verre		aérien	3	Quadria	Lineance						Citec_Cyclea_3_A_c					5.705716	45.186698	POINT (5.705715519483729 45.186697549732145)
v_opendata_ctd_pav_tous.fid-26c1a268_169f8be4829_389b	319	Nord-Ouest	Grenoble	1	4 Rue Victor Lastella / vers angle Rue Ampère			verre		enterré	4	Citec	Tulip				???		Citec_Tulip_4_E_k				???	5.705317	45.184295	POINT (5.705317358856862 45.18429530728908)
v_opendata_ctd_pav_tous.fid-26c1a268_169f8be4829_389c	320	Nord-Ouest	Grenoble	1	Square des Fusillés / Rue Ampère (devant Carrefour Market)			verre		enterré	4	Citec	Tulip				2012 (mars)		Citec_Tulip_4_E_k				2012 (mars)	5.705723	45.188083	POINT (5.7057231143089435 45.18808298831053)
v_opendata_ctd_pav_tous.fid-26c1a268_169f8be4829_389d	321	Nord-Ouest	Grenoble	1	40 Rue Nicolas Chorier / proximité croisement Rue D'Alembert			verre		aérien	3	Quadria	Lineance						Citec_Cyclea_3_A_c					5.710467	45.185129	POINT (5.710467460456874 45.18512864903167)
v_opendata_ctd_pav_tous.fid-26c1a268_169f8be4829_389e	322	Nord-Est	Grenoble	5	90 Avenue Jules Vallès / Résidence INPG Houille Blanche			verre		aérien	3	Citec	Cyclea						Citec_Cyclea_3_A_c					5.751778	45.177285	POINT (5.751777833869868 45.17728550815784)
v_opendata_ctd_pav_tous.fid-26c1a268_169f8be4829_389f	323	Nord-Ouest	Grenoble	3	14-16 Cours de la Libération / angle Rue Charles Péguy			verre		aérien	3	Quadria	Lineance						Citec_Cyclea_3_A_c					5.715763	45.178735	POINT (5.715763339273299 45.178735487441855)
v_opendata_ctd_pav_tous.fid-26c1a268_169f8be4829_38a0	324	Nord-Est	Grenoble	2	11 Rue de Narvik / Rue Henri Ding / proximité Parc Hoche			verre		aérien	3	Citec	Cyclea						Citec_Cyclea_3_A_C					5.727549	45.183275	POINT (5.7275488787555116 45.18327489319568)
v_opendata_ctd_pav_tous.fid-26c1a268_169f8be4829_38a1	325	Sud	Grenoble	4	38 Rue Général Mangin			verre		aérien	2.5	Citec	Cyclea						Citec_Cyclea_2.5_A_c					5.719224	45.178922	POINT (5.719223604543398 45.17892190734036)
v_opendata_ctd_pav_tous.fid-26c1a268_169f8be4829_38a2	326	Sud	Grenoble	4	Rue Général Mangin (Hôtel Mercure Président)			verre		aérien	3	Citec							Citec__3_A_c					5.72029	45.178994	POINT (5.7202899492598815 45.178993672933316)
v_opendata_ctd_pav_tous.fid-26c1a268_169f8be4829_38a3	327	Sud	Grenoble	4	46 Rue Général Ferrié / Square Ferrié			verre		aérien	3	Citec							Citec__3_A_c					5.724455	45.176811	POINT (5.724454650977875 45.17681101150891)
v_opendata_ctd_pav_tous.fid-26c1a268_169f8be4829_38a4	328	Sud	Grenoble	4	3-9 Rue Léo Lagrange (sur terre plein)			verre		aérien	2.5	Citec	Cyclea						Citec_Cyclea_2.5_A_c					5.721714	45.177962	POINT (5.721713581885746 45.17796235601277)
v_opendata_ctd_pav_tous.fid-26c1a268_169f8be4829_38a5	329	Sud	Grenoble	4	13 Rue Général Ferrié / Rue Elysée Chatin / Rue de Chamrousse			verre		aérien	3	Citec							Citec__3_A_c					5.723948	45.178986	POINT (5.723948086037155 45.17898564281225)
v_opendata_ctd_pav_tous.fid-26c1a268_169f8be4829_38a6	330	Sud	Grenoble	4	Avenue Albert 1er de Belgique / Avenue Général Champon (angle nord-ouest)			verre		aérien	4	Quadria	Lineance						-__4_A_c					5.7315	45.182151	POINT (5.731500240556438 45.18215075895509)
v_opendata_ctd_pav_tous.fid-26c1a268_169f8be4829_38a7	331	Sud	Grenoble	4	Rue de Stalingrad / Rue de Chamrousse			verre		aérien	4	Citec							Citec__4_A_c					5.726164	45.17928	POINT (5.726164178159373 45.17928016093224)
v_opendata_ctd_pav_tous.fid-26c1a268_169f8be4829_38a8	332	Sud	Grenoble	4	Rue de Stalingrad / Rue Edmond About			verre		aérien	3	-							-__3_A_c					5.725588	45.174709	POINT (5.725588336584726 45.17470869719178)
v_opendata_ctd_pav_tous.fid-26c1a268_169f8be4829_38a9	333	Sud	Grenoble	4	Rue Montesquieu / Rue du Docteur Bordier			verre		aérien	3	Citec							Citec__3_A_c					5.729608	45.175719	POINT (5.729608042873845 45.17571866154932)
v_opendata_ctd_pav_tous.fid-26c1a268_169f8be4829_38aa	334	Sud	Grenoble	4	Rue des Déportés du 11 novembre 1943 (face au n° 33)			verre		aérien	3	Citec							Citec__3_A_c					5.727169	45.177673	POINT (5.72716887939399 45.17767319406687)
v_opendata_ctd_pav_tous.fid-26c1a268_169f8be4829_38ab	335	Sud	Grenoble	4	Rue des Déportés du 11 novembre 1943 / Rue Mallifaud (parking)			verre		aérien	4	Quadria	Lineance						-__4_A_c					5.728495	45.180766	POINT (5.728495305675932 45.18076600205643)
v_opendata_ctd_pav_tous.fid-26c1a268_169f8be4829_38ac	336	Nord-Est	Grenoble	2	Rue Eugène Faure / Rue Mably / proximité Place Verdun - Préfecture			verre		aérien	3	Citec	Cyclea						Citec_Cyclea_3_A_C					5.73355	45.18873	POINT (5.733549965340652 45.18873018960897)
v_opendata_ctd_pav_tous.fid-26c1a268_169f8be4829_38ad	337	Sud	Grenoble	4	Boulevard des Diables Bleus / Avenue Jean Perrot (face bar-tabac)			verre		aérien	4	Quadria	Lineance						-__4_A_c					5.733224	45.183494	POINT (5.733224202375294 45.18349412895978)
v_opendata_ctd_pav_tous.fid-26c1a268_169f8be4829_38ae	338	Nord-Est	Grenoble	2	Place Valentin Hauy (parking derrière Maître Kanter et biblithèque Lyautey) / Hoche			verre		aérien	3	Citec	Cyclea						Citec_Cyclea_3_A_C					5.730502	45.185131	POINT (5.730502384806254 45.185130900691135)
v_opendata_ctd_pav_tous.fid-26c1a268_169f8be4829_38af	339	Sud	Grenoble	4	Boulevard Clémenceau / Rue Colonel Driant / proximité bowling-halle des ports			verre		aérien	2.5	Citec	Cyclea						Citec_Cyclea_2.5_A_c					5.735638	45.182539	POINT (5.735637798325936 45.182538545760586)
v_opendata_ctd_pav_tous.fid-26c1a268_169f8be4829_38b0	340	Sud	Grenoble	4	Avenue Albert 1er de Belgique / Avenue Général Champon (angle sud-est - parking supermarché)			verre		aérien	4	Quadria	Lineance						-__4_A_c					5.731897	45.181892	POINT (5.73189707875 45.181891779761344)
v_opendata_ctd_pav_tous.fid-26c1a268_169f8be4829_38b1	341	Sud	Grenoble	6	Rue de Stalingrad / Rue Alfred de Vigny			verre		aérien	4	Quadria	Lineance						-__4_A_c					5.723466	45.166634	POINT (5.723465806613842 45.166634189565904)
v_opendata_ctd_pav_tous.fid-26c1a268_169f8be4829_38b2	342	Sud	Grenoble	4	Avenue Marcelin Berthelot / Rue Ponsard			verre		aérien	3	Citec							Citec__3_A_c					5.732528	45.176149	POINT (5.732528414418777 45.176148690656184)
v_opendata_ctd_pav_tous.fid-26c1a268_169f8be4829_38b3	343	Sud	Grenoble	4	Chemin de l'Eglise / Rue St François de Sales / Rue Lavoisier			verre		aérien	3	Citec							Citec__3_A_c					5.734509	45.17696	POINT (5.734509386090568 45.176960421804885)
v_opendata_ctd_pav_tous.fid-26c1a268_169f8be4829_38b4	344	Sud	Grenoble	4	26 Rue Lavoisier			verre		aérien	2.5	Citec	Cyclea						Citec_Cyclea_2.5_A_c					5.734152	45.177733	POINT (5.734151985178912 45.177733120081434)
v_opendata_ctd_pav_tous.fid-26c1a268_169f8be4829_38b5	345	Sud	Grenoble	4	Chemin de l'Eglise / Rue Monge			verre		aérien	2.5	Citec	Cyclea						Citec_Cyclea_2.5_A_c					5.732541	45.177294	POINT (5.732541000206956 45.1772943781247)
v_opendata_ctd_pav_tous.fid-26c1a268_169f8be4829_38b6	346	Sud	Grenoble	4	Rue de Stalingrad / Rue des Déportés du 11 novembre 1943 / Rue Montesquieu			verre		aérien	3	Citec							Citec__3_A_c					5.726624	45.176846	POINT (5.726623933246093 45.17684647734598)
v_opendata_ctd_pav_tous.fid-26c1a268_169f8be4829_38b7	347	Sud	Grenoble	4	Av Marcelin Berthelot / Lycée Guynemer			verre		aérien	3	-							-__3_A_c					5.731821	45.170969	POINT (5.731820924018483 45.17096918383054)
v_opendata_ctd_pav_tous.fid-26c1a268_169f8be4829_38b8	348	Nord-Est	Grenoble	5	Rue Gérard Philipe / Avenue Malherbe			verre		enterré	4	Citec							Citec__4_E_					5.734086	45.169378	POINT (5.734086442647505 45.169378393302246)
v_opendata_ctd_pav_tous.fid-26c1a268_169f8be4829_38b9	349	Sud	Grenoble	4	Avenue Jean Perrot / Avenue des Jeux Olympiques / Rue Paul Claudel (arrêt bus)			verre		aérien	4.2	Citec	Cyclea max						Citec_Cyclea max_4.2_A_c					5.738716	45.173331	POINT (5.738716233506441 45.17333119559902)
v_opendata_ctd_pav_tous.fid-26c1a268_169f8be4829_38ba	350	Sud	Grenoble	4	41-43 Avenue Jean Perrot / Chemin Bourgelat			verre		aérien	3	Citec	Cyclea						Citec_Cyclea_3_A_c					5.736044	45.178643	POINT (5.7360443312863545 45.1786427319861)
v_opendata_ctd_pav_tous.fid-26c1a268_169f8be4829_38bb	351	Sud	Grenoble	4	Rue Bajatière / Rue Leroy / Ch Vieux dit Perrin			verre		aérien	3	Citec							Citec__3_A_c					5.739493	45.179299	POINT (5.739493088185692 45.17929894795178)
v_opendata_ctd_pav_tous.fid-26c1a268_169f8be4829_38bc	352	Nord-Est	Grenoble	5	Déchèterie Jouhaux / 63 rue Léon Jouhaux / Avenue des Jeux Olympiques			verre		aérien	3	Citec	Cyclea						Citec_Cyclea_3_A_c					5.745718	45.174755	POINT (5.745718191444078 45.17475506129955)
v_opendata_ctd_pav_tous.fid-26c1a268_169f8be4829_38bd	353	Sud	Grenoble	4	23-27 Rue Jules Ferry			verre		aérien	3	Citec							Citec__3_A_c					5.735641	45.181787	POINT (5.73564067512248 45.181787094847145)
v_opendata_ctd_pav_tous.fid-26c1a268_169f8be4829_38be	354	Sud	Grenoble	4	4 Rue Auguste Ravier / Boulevard Clemenceau (derrière Serge Pizza)			verre		aérien	3	Citec	Cyclea						Citec_Cyclea_3_A_c					5.738248	45.183055	POINT (5.738248127551387 45.183055348190955)
v_opendata_ctd_pav_tous.fid-26c1a268_169f8be4829_38bf	355	Sud	Grenoble	4	1 Rue Léon Jouhaux			verre		aérien	3	Citec	Cyclea						Citec_Cyclea_3_A_c					5.740867	45.18416	POINT (5.740866846969337 45.18415996456111)
v_opendata_ctd_pav_tous.fid-26c1a268_169f8be4829_38c0	356	Sud	Grenoble	4	14 Rue Léon Jouhaux / Rue Commandant Perreau			verre		aérien	2.5	Citec							Citec__2.5_A_c					5.740954	45.183024	POINT (5.740953590815028 45.183024070518925)
v_opendata_ctd_pav_tous.fid-26c1a268_169f8be4829_38c1	357	Sud	Grenoble	4	Rue Moyrand / Rue Léon Jouhaux			verre		aérien	3	Citec							Citec__3_A_c					5.741255	45.180631	POINT (5.741254572588798 45.18063068844642)
v_opendata_ctd_pav_tous.fid-26c1a268_169f8be4829_38c2	358	Nord-Est	Grenoble	5	15 Chemin Guilbaud			verre		aérien	3	Citec	Cyclea						Citec_Cyclea_3_A_c					5.740652	45.177502	POINT (5.740652000540092 45.17750249270407)
v_opendata_ctd_pav_tous.fid-26c1a268_169f8be4829_38c3	359	Nord-Est	Grenoble	5	11 Rue Condé / Rue Tourville			verre		aérien	3	Citec	Cyclea						Citec_Cyclea_3_A_c					5.743207	45.179279	POINT (5.743207487572444 45.17927879557489)
v_opendata_ctd_pav_tous.fid-26c1a268_169f8be4829_38c4	360	Nord-Est	Grenoble	5	Avenue Jeanne d'Arc / Rue Commandant Perreau (square)			verre		aérien	3	Citec	Cyclea						Citec_Cyclea_3_A_c					5.744209	45.183075	POINT (5.744209291417621 45.18307462820166)
v_opendata_ctd_pav_tous.fid-26c1a268_169f8be4829_38c5	361	Nord-Ouest	Grenoble	3	Rue des Eaux Claires / Rue Guynemer			verre		aérien	3	Quadria	Lineance						Citec_Cyclea_3_A_c					5.709384	45.176403	POINT (5.709384480246962 45.176402673717355)
v_opendata_ctd_pav_tous.fid-26c1a268_169f8be4829_38c6	362	Nord-Est	Grenoble	5	Boulevard Clémenceau / Chemin de Villebois			verre		aérien	4	Quadria	Lineance				201X-XX-XX / 2016-11-24		Citec_Cyclea_4_A_c				201X-XX-XX / 2016-11-24	5.743661	45.186178	POINT (5.743660833841553 45.18617845374574)
v_opendata_ctd_pav_tous.fid-26c1a268_169f8be4829_38c7	363	Nord-Est	Grenoble	5	24 Chemin Villebois			verre		aérien	4.2	Citec	Cyclea Max						Citec_Cyclea Max_4.2_A_c					5.744677	45.183982	POINT (5.744676602993053 45.18398155700926)
v_opendata_ctd_pav_tous.fid-26c1a268_169f8be4829_38c8	364	Nord-Est	Grenoble	5	10 Rue du Repos (Tennis couverts)			verre		aérien	3	Citec	Cyclea						Citec_Cyclea_3_A_c					5.749576	45.170373	POINT (5.749576095266808 45.170372936719325)
v_opendata_ctd_pav_tous.fid-26c1a268_169f8be4829_38c9	365	Nord-Est	Grenoble	5	Stade des Alpes (Tribune Sud - Escalier M2) / accès par avenue de Valmy			verre		aérien	3	Citec	Cyclea						Citec_Cyclea_3_A_c					5.740509	45.186737	POINT (5.740508604228562 45.18673664694702)
v_opendata_ctd_pav_tous.fid-26c1a268_169f8be4829_38ca	366	Nord-Est	Grenoble	5	Chemin de la Blanchisserie / Rue Claude Genin			verre		aérien	4.2	Citec	Cyclea Max						Citec_Cyclea Max_4.2_A_c					5.747166	45.182458	POINT (5.7471663028104585 45.18245778388138)
v_opendata_ctd_pav_tous.fid-26c1a268_169f8be4829_38cb	367	Nord-Est	Grenoble	5	Rue Duguesclin / Avenue Washington			verre		aérien	3	Citec	Cyclea						Citec_Cyclea_3_A_c					5.747029	45.179939	POINT (5.7470288845167605 45.17993866072002)
v_opendata_ctd_pav_tous.fid-26c1a268_169f8be4829_38cc	368	Nord-Est	Grenoble	5	Rue Charles Rivail / Rue Henri Poincaré			verre		aérien	3	Citec	Cyclea						Citec_Cyclea_3_A_c					5.748301	45.178118	POINT (5.748300586970379 45.178117652381104)
v_opendata_ctd_pav_tous.fid-26c1a268_169f8be4829_38cd	369	Nord-Est	Grenoble	5	84 Avenue Jeanne d'Arc / MJC / Marché Abbaye / 1 Place de la Commune de 1971			verre		aérien	3	Citec	Cyclea						Citec_Cyclea_3_A_c					5.74525	45.179479	POINT (5.745250333175663 45.17947917245399)
v_opendata_ctd_pav_tous.fid-26c1a268_169f8be4829_38ce	370	Nord-Est	Grenoble	5	Rue Marius Riollet / Avenue Washington			verre		aérien	3	Citec	Cyclea						Citec_Cyclea_3_A_c					5.747664	45.17699	POINT (5.747664005566987 45.17699048715723)
v_opendata_ctd_pav_tous.fid-26c1a268_169f8be4829_38cf	372	Nord-Est	Grenoble	5	82 Rue Jules Vallès / Rue Marius Blanchet			verre		aérien	2.5	Citec	Cyclea						Citec_Cyclea_2.5_A_c					5.751322	45.178528	POINT (5.751322337664336 45.17852845228669)
v_opendata_ctd_pav_tous.fid-26c1a268_169f8be4829_38d0	373	Nord-Est	Grenoble	5	29 Rue Jean Bart / parking face au n° 29			verre		aérien	3	Citec	Cyclea						Citec_Cyclea_3_A_c					5.741635	45.177106	POINT (5.741634913888111 45.177106102899245)
v_opendata_ctd_pav_tous.fid-26c1a268_169f8be4829_38d1	374	Nord-Est	Grenoble	5	12-14 Rue du 140ème RIA / Ecole Léon Jouhaux / Résidence Jeunes Travailleurs Taillefer			verre		aérien	3	Citec	Cyclea						Citec_Cyclea_3_A_c					5.741407	45.175079	POINT (5.741406844657734 45.175078757691686)
v_opendata_ctd_pav_tous.fid-26c1a268_169f8be4829_38d2	375	Nord-Est	Grenoble	5	Avenue Teisseire / Rue Gaston Letonnelier			verre		aérien	3	Citec	Cyclea						Citec_Cyclea_3_A_c					5.742668	45.169191	POINT (5.74266776666106 45.16919063503298)
v_opendata_ctd_pav_tous.fid-26c1a268_169f8be4829_38d3	376	Nord-Est	Grenoble	5	Rue René Fernandat / Rue Gaston Letonnelier			verre		aérien	2.5	Citec	Cyclea						Citec_Cyclea_2.5_A_c					5.74336	45.170595	POINT (5.743360195371713 45.17059482881592)
v_opendata_ctd_pav_tous.fid-26c1a268_169f8be4829_38d4	377	Nord-Est	Grenoble	5	MJC Jouhaux / Rue Emile Romanet / Parc / Parking vers kiosque			verre		aérien	4	Villiger	Cityline						Villiger_Cityline_4_A_c					5.742006	45.176226	POINT (5.742005951989553 45.17622653304058)
v_opendata_ctd_pav_tous.fid-26c1a268_169f8be4829_38d5	378	Nord-Est	Grenoble	5	119 Av Jean Perrot (La Poste Teisseire)			verre		aérien	3	Citec	Cyclea						Citec_Cyclea_3_A_c					5.740195	45.170352	POINT (5.740194535514667 45.170351813406086)
v_opendata_ctd_pav_tous.fid-26c1a268_169f8be4829_38d6	379	Nord-Est	Grenoble	5	Avenue Malherbe / Place Louis Jouvet / Eglise St Marc (Face marché)			verre		aérien	4.2	Citec	Cyclea Max						Citec_Cyclea Max_4.2_A_c					5.737549	45.170141	POINT (5.737548992852776 45.17014146198155)
v_opendata_ctd_pav_tous.fid-26c1a268_169f8be4829_38d7	380	Nord-Est	Grenoble	5	14 Rue Le Nôtre / Square Henri Mauchant			verre		aérien	3	Citec	Cyclea						Citec_Cyclea_3_A_c					5.73735	45.169189	POINT (5.737349732906537 45.16918953909822)
v_opendata_ctd_pav_tous.fid-26c1a268_169f8be4829_38d8	381	Nord-Est	Grenoble	5	9 Rue Florian / Avenue de La Bruyère			verre		aérien	3	Citec	Cyclea						Citec_Cyclea_3_A_c					5.73616	45.166938	POINT (5.736160425604843 45.16693809466834)
v_opendata_ctd_pav_tous.fid-26c1a268_169f8be4829_38d9	382	Sud	Grenoble	6	34-38 Avenue La Bruyère			verre		enterré	4	Citec							Citec__4_E_					5.732812	45.166795	POINT (5.73281210189039 45.16679492903798)
v_opendata_ctd_pav_tous.fid-26c1a268_169f8be4829_38da	383	Sud	Grenoble	6	30 Galerie de l'Arlequin / CCAS			verre		enterré	4	Citec	Evolution						Citec_Evolution_4_E_k					5.731374	45.165812	POINT (5.731373948370229 45.16581176772264)
v_opendata_ctd_pav_tous.fid-26c1a268_169f8be4829_38db	384	Nord-Est	Grenoble	5	Avenue de La Bruyère / Square La Bruyère / Rue Nicolas Boileau			verre		aérien	3	Citec	Cyclea						Citec_Cyclea_3_A_c					5.738836	45.167137	POINT (5.738836050446024 45.16713672566921)
v_opendata_ctd_pav_tous.fid-26c1a268_169f8be4829_38dc	385	Sud	Grenoble	6	50 Galerie de l'Arlequin			verre		aérien	3	Citec							Citec__3_A_c					5.732026	45.164451	POINT (5.7320263339889825 45.16445063371149)
v_opendata_ctd_pav_tous.fid-26c1a268_169f8be4829_38dd	386	Sud	Grenoble	4	1-3 Rue Général Ferrié / vers croisement Boulevard Foch			verre		aérien	3	Citec							Citec__3_A_c					5.723525	45.180353	POINT (5.723525173475373 45.18035276442542)
v_opendata_ctd_pav_tous.fid-26c1a268_169f8be4829_38de	387	Sud	Grenoble	6	Rue Paul Helbronner / Imp de la Fontaine / Parking			verre		aérien	3	Quadria	Lineance						Citec__3_A_c					5.740585	45.164898	POINT (5.7405852316223065 45.16489801903331)
v_opendata_ctd_pav_tous.fid-26c1a268_169f8be4829_38df	388	Sud	Grenoble	6	Avenue de Constantine / Rue Cure Bourse / 20 Allée des Géants / Parking Erables			verre		enterré	4	-	Tulip 4				2012 (été)		-_Tulip 4_4_E_				2012 (été)	5.738667	45.160442	POINT (5.738667280532239 45.16044154984046)
v_opendata_ctd_pav_tous.fid-26c1a268_169f8be4829_38e0	390	Sud	Grenoble	6	Avenue de La Bruyère / Rue des Colibris			verre		aérien	3	Citec							Citec__3_A_c					5.730226	45.166644	POINT (5.7302255436443215 45.16664418180504)
v_opendata_ctd_pav_tous.fid-26c1a268_169f8be4829_38e1	393	Sud	Grenoble	6	13 Rue Maurice Dodero (parking silo n°1 La Rampe) / Rue des Trois Quartiers			verre		enterré	3	Citec							Citec__3_E_					5.73095	45.161233	POINT (5.730950368916045 45.16123346409462)
v_opendata_ctd_pav_tous.fid-26c1a268_169f8be4829_38e2	394	Sud	Grenoble	6	39 Rue Aimé Pupin / Résidence Jeunes Travailleurs ILES / en face de l'IMT			verre		aérien	3	Citec							Citec__3_A_c					5.724252	45.161201	POINT (5.724252275349344 45.161201386962915)
v_opendata_ctd_pav_tous.fid-26c1a268_169f8be4829_38e3	395	Sud	Grenoble	6	170 Galerie de l'Arlequin / Entrée école La Rampe			verre		enterré	4	Citec	Evolution				2015 (juillet)		Citec_Evolution_4_E_k				2015 (juillet)	5.731835	45.161848	POINT (5.731834920144958 45.1618481627412)
v_opendata_ctd_pav_tous.fid-26c1a268_169f8be4829_38e4	396	Sud	Grenoble	6	12-14 Rue Maurice Dodero / Parking tours VO			verre		aérien	3	Citec							Citec__3_A_c					5.730476	45.161874	POINT (5.730475838680459 45.16187448339252)
v_opendata_ctd_pav_tous.fid-26c1a268_169f8be4829_38e5	397	Sud	Grenoble	6	Avenue Marie Reynoard / entre Collège et MJC Prémol / Terrains de sport			verre		aérien	3	Citec							Citec__3_A_c					5.728415	45.162755	POINT (5.72841476467478 45.16275544346936)
v_opendata_ctd_pav_tous.fid-26c1a268_169f8be4829_38e6	398	Sud	Grenoble	6	32-34 Avenue Marie Reynoard / Parking			verre		aérien	2.5	Citec	Cyclea						Citec_Cyclea_2.5_A_c					5.728497	45.159653	POINT (5.728497271121777 45.159652931729646)
v_opendata_ctd_pav_tous.fid-26c1a268_169f8be4829_38e7	399	Sud	Grenoble	6	Rue Aimé Pupin / Rue Roger François			verre		aérien	3	Quadria	Lineance						Citec__3_A_c					5.723864	45.163817	POINT (5.723864125618652 45.16381661903721)
v_opendata_ctd_pav_tous.fid-26c1a268_169f8be4829_38e8	400	Sud	Grenoble	6	12 Avenue Edmond Esmonin / Piscine des Dauphins / face Carrefour			verre		aérien	3	Citec							Citec__3_A_c					5.726928	45.159409	POINT (5.726927743219143 45.159409225468245)
v_opendata_ctd_pav_tous.fid-26c1a268_169f8be4829_38e9	401	Sud	Grenoble	6	Patinoire (Avenue de l'Europe)			verre		aérien	3	Citec							Citec__3_A_c					5.734913	45.159093	POINT (5.734912955581353 45.159092738613765)
v_opendata_ctd_pav_tous.fid-26c1a268_169f8be4829_38ea	402	Sud	Grenoble	6	Restaurant Alpexpo - Alpes Congrès / Rue Henri Barbusse / Avenue Innsbruck / Voie privée entre Alpexpo et Alpes Congrès			verre		aérien	3	-							-__3_A_c					5.734741	45.156127	POINT (5.734741295807893 45.15612730305537)
v_opendata_ctd_pav_tous.fid-26c1a268_169f8be4829_38eb	403	Sud	Grenoble	4	Avenue Léon Blum / Avenue Paul Verlaine (angle nord-est, vers station lavage auto)			verre		aérien	3	Citec							Citec__3_A_c					5.716543	45.161785	POINT (5.716543259568897 45.1617845798324)
v_opendata_ctd_pav_tous.fid-26c1a268_169f8be4829_38ec	404	Sud	Grenoble	4	Avenue Léon Blum / Avenue Paul Verlaine (angle sud-ouest, devant hôtel) / Rue Paul et Germaine Veyret			verre		aérien	2.5	Citec	Cyclea						Citec_Cyclea_2.5_A_c					5.715412	45.16188	POINT (5.715412012431055 45.1618797430084)
v_opendata_ctd_pav_tous.fid-26c1a268_169f8be4829_38ed	405	Nord-Ouest	Grenoble	3	13-17 Rue Paul Strauss			verre		aérien	3	Citec	Cyclea						Citec_Cyclea_3_A_c					5.703374	45.16883	POINT (5.703373792459348 45.16883033799665)
v_opendata_ctd_pav_tous.fid-26c1a268_169f8be4829_38ee	406	Nord-Ouest	Grenoble	3	49 Rue Anatole France			verre		enterré	4	Citec							Citec__4_E_					5.703795	45.172392	POINT (5.7037947677184 45.172391941242374)
v_opendata_ctd_pav_tous.fid-26c1a268_169f8be4829_38ef	407	Nord-Ouest	Grenoble	3	Rue des Eaux Claires / Rue Aimé Césaire / proximité collège			verre		aérien	3	Quadria	Lineance						Citec_Cyclea_3_A_c					5.7069	45.174047	POINT (5.70689962765551 45.17404751787072)
v_opendata_ctd_pav_tous.fid-26c1a268_169f8be4829_38f0	408	Nord-Ouest	Grenoble	3	Rue du Docteur Schweitzer (face au n° 20) / vers croisement rue Anatole France)			verre		aérien	3	Quadria	Lineance						Citec_Cyclea_3_A_c					5.707832	45.172719	POINT (5.707832416133607 45.17271910026796)
v_opendata_ctd_pav_tous.fid-26c1a268_169f8be4829_38f1	409	Nord-Ouest	Grenoble	3	71 Rue Joseph Bouchayer / Rue Marbeuf / Ecole Paul Painlevé			verre		aérien	4	Quadria	Lineance						Citec_Cyclea Max_4_A_c					5.70705	45.177732	POINT (5.707049630092402 45.17773165667375)
v_opendata_ctd_pav_tous.fid-26c1a268_169f8be4829_38f2	410	Nord-Ouest	Grenoble	3	Rue Henri Dunant / Rue Barral de Montferrat / Marché			verre		aérien	3	Quadria	Lineance						Citec_Cyclea_3_A_c					5.710126	45.174754	POINT (5.710126195136124 45.17475419168406)
v_opendata_ctd_pav_tous.fid-26c1a268_169f8be4829_38f3	411	Nord-Ouest	Grenoble	3	Rue Charles Péguy / Rue André Rivoire			verre		aérien	3	Quadria	Lineance						Citec_Cyclea_3_A_c					5.714065	45.178906	POINT (5.714065303129254 45.17890604137477)
v_opendata_ctd_pav_tous.fid-26c1a268_169f8be4829_38f4	412	Nord-Ouest	Grenoble	3	Rue des Eaux Claires / Rue Joseph Bouchayer			verre		aérien	3	Quadria	Lineance						Citec_Cyclea_3_A_c					5.71005	45.177319	POINT (5.71005047825032 45.17731942918531)
v_opendata_ctd_pav_tous.fid-26c1a268_169f8be4829_38f5	413	Nord-Ouest	Grenoble	3	Rue André Rivoire / Chemin des Marronniers			verre		aérien	3	Quadria	Lineance						Citec_Cyclea_3_A_c					5.713281	45.177526	POINT (5.713280870805101 45.17752640717086)
v_opendata_ctd_pav_tous.fid-26c1a268_169f8be4829_38f6	414	Nord-Ouest	Grenoble	3	26-34 Rue Joseph Bouchayer / Jardin du 8 mai 1945 / face MJC Eaux Claires			verre		aérien	3	Quadria	Lineance						Citec_Cyclea_3_A_c					5.711379	45.177026	POINT (5.711378905641648 45.17702572482029)
v_opendata_ctd_pav_tous.fid-26c1a268_169f8be4829_38f7	415	Nord-Ouest	Grenoble	3	44 av Rhin et Danube CRS 47 (derrière bâtiment)			verre		aérien	2.5	-							-__2.5_A_c					5.703636	45.17563	POINT (5.703636275615339 45.17563050766556)
v_opendata_ctd_pav_tous.fid-26c1a268_169f8be4829_38f8	416	Nord-Ouest	Grenoble	3	Rue Anatole France / Allée du Lys Rouge			verre		aérien	3	Quadria	Lineance						Citec_Cyclea_3_A_c					5.710909	45.173137	POINT (5.7109092796972165 45.17313749597154)
v_opendata_ctd_pav_tous.fid-26c1a268_169f8be4829_38f9	417	Nord-Ouest	Grenoble	3	2 Av Rhin et Danube / Commerces Portes de l'Ouest			verre		enterré	4	Citec							Citec__4_E_					5.705258	45.179508	POINT (5.705257729425629 45.17950775949195)
v_opendata_ctd_pav_tous.fid-26c1a268_169f8be4829_38fa	418	Sud	Grenoble	4	Rue des Alliés / Avenue Honoré De Balzac			verre		aérien	3	Citec	Cyclea						Citec_Cyclea_2.5_A_c				2019-02-25	5.71904	45.173325	POINT (5.719040311651926 45.17332545560919)
v_opendata_ctd_pav_tous.fid-26c1a268_169f8be4829_38fb	419	Sud	Grenoble	4	Rue du Lieutenant Chabal / Eglise Saint Paul de Beauvert			verre		aérien	4	Citec							Citec__4_A_c					5.722325	45.171554	POINT (5.722324902779045 45.171554375539316)
v_opendata_ctd_pav_tous.fid-26c1a268_169f8be4829_38fc	420	Sud	Grenoble	4	111 Rue de Stalingrad / station service / ensemble sportif du Clos d'Or			verre		aérien	3	Citec							Citec__3_A_c					5.724161	45.17121	POINT (5.724160977896722 45.17121029225829)
v_opendata_ctd_pav_tous.fid-26c1a268_169f8be4829_38fd	421	Sud	Grenoble	6	Rue Lucien Andrieux / contre-allée (côté Village Olympique, à hauteur des 2 tours)			verre		aérien	3	Quadria	Lineance						Citec__3_A_c					5.720936	45.162482	POINT (5.720935543773567 45.16248191729145)
v_opendata_ctd_pav_tous.fid-26c1a268_169f8be4829_38fe	422	Sud	Grenoble	4	Rue de la Dent de Crolles / Rue de l'Obiou (Cité Beauvert)			verre		aérien	3	Citec							Citec__3_A_c					5.718309	45.162379	POINT (5.718309033716688 45.162378931286504)
v_opendata_ctd_pav_tous.fid-26c1a268_169f8be4829_38ff	423	Sud	Grenoble	4	Rue Francis Jammes / Rue Alfred de Vigny			verre		enterré	4	Citec					été 2012		Citec__4_E_				été 2012	5.718882	45.162882	POINT (5.718882437127661 45.162881695496345)
v_opendata_ctd_pav_tous.fid-26c1a268_169f8be4829_3900	424	Sud	Grenoble	4	Avenue Léon Blum / Rue Francis Jammes / Rue Guy De Maupassant			verre		aérien	3	Citec							Citec__3_A_c					5.717779	45.163745	POINT (5.717779298761868 45.163744690163185)
v_opendata_ctd_pav_tous.fid-26c1a268_169f8be4829_3901	425	Sud	Grenoble	4	21 Avenue Léon Blum / Caserne Gendarmerie			verre		aérien	3	-							-__3_A_c					5.721762	45.167893	POINT (5.721761867202326 45.16789282342991)
v_opendata_ctd_pav_tous.fid-26c1a268_169f8be4829_3902	426	Sud	Grenoble	4	Rue des Alliés (en face du n°45) / Point P			verre		aérien	2.5	Citec	Cyclea						Citec_Cyclea_2.5_A_c					5.727119	45.170782	POINT (5.72711947892283 45.17078155040688)
v_opendata_ctd_pav_tous.fid-26c1a268_169f8be4829_3903	427	Sud	Grenoble	4	78 Rue des Alliés / Zone Activité de l'Alliance			verre		aérien	4	Citec							Citec__4_A_c					5.723278	45.172088	POINT (5.723277771205652 45.172088004703014)
v_opendata_ctd_pav_tous.fid-26c1a268_169f8be4829_3904	428	Sud	Grenoble	4	5 Avenue Léon Blum / Maison des Initiatives / vers intersection avec Rue de Stalingrad			verre		aérien	4	Citec							Citec__4_A_c					5.72298	45.169701	POINT (5.72298005296115 45.1697007700374)
v_opendata_ctd_pav_tous.fid-26c1a268_169f8be4829_3905	429	Sud	Grenoble	4	Rue de Stalingrad / Rue George Sand (face bibliothèque Alliance)			verre		aérien	3	Citec							Citec__3_A_c					5.725005	45.173358	POINT (5.725005290013788 45.17335789179275)
v_opendata_ctd_pav_tous.fid-26c1a268_169f8be4829_3906	430	Sud	Grenoble	4	Déchèterie Jacquard / 16 rue Jacquard			verre		aérien	3	Citec							Citec__3_A_c					5.722794	45.175272	POINT (5.722794129952279 45.175272502217865)
v_opendata_ctd_pav_tous.fid-26c1a268_169f8be4829_3907	431	Sud	Grenoble	4	Rue Jacquard / Rue des Artilleurs de Montagne (vers passerelle voie ferrée)			verre		aérien	3	Citec	Cyclea				2015-01-07		Citec_Cyclea_3_A_c				2015-01-07	5.717794	45.175819	POINT (5.717794012150729 45.17581918708437)
v_opendata_ctd_pav_tous.fid-26c1a268_169f8be4829_3908	432	Sud	Grenoble	4	Rue Jacquard / Rue Henriette Deloras / Rue Louvois			verre		aérien	3	Citec							Citec__3_A_c					5.719966	45.175558	POINT (5.719965872022636 45.17555810240157)
v_opendata_ctd_pav_tous.fid-26c1a268_169f8be4829_3909	433	Nord-Est	Grenoble	2	Place André Malraux / Rue du 4ème Régiment du Génie / Quartier Hoche			verre		aérien	3	Citec	Cyclea						Citec_Cyclea_3_A_C					5.729438	45.185209	POINT (5.729437587421844 45.18520855056554)
v_opendata_ctd_pav_tous.fid-26c1a268_169f8be4829_390a	434	Sud	Grenoble	4	Rue Alfred de Vigny / Lycée Professionnel Hôtelier du Clos d'Or			verre		aérien	3	Citec							Citec__3_A_c					5.725209	45.168268	POINT (5.725208898264928 45.16826778529618)
v_opendata_ctd_pav_tous.fid-26c1a268_169f8be4829_390b	435	Nord-Ouest	Grenoble	3	87 Cours de la Libération / Rue Charles Baudelaire			verre		aérien	3	Quadria	Lineance						Citec_Cyclea_3_A_c				2019-02-25	5.714057	45.172806	POINT (5.714057060156531 45.172806245302375)
v_opendata_ctd_pav_tous.fid-26c1a268_169f8be4829_390c	436	Nord-Ouest	Grenoble	3	107 Cours de la Libération / Chemin Meney			verre		aérien	3	Quadria	Lineance						Citec_Cyclea_3_A_c				2019-02-25	5.713549	45.17106	POINT (5.713548675483916 45.1710597168928)
v_opendata_ctd_pav_tous.fid-26c1a268_169f8be4829_390d	437	Nord-Est	Grenoble	2	5 Quai Stéphane Jay / Départ Téléphérique Les Bulles / Rue Hector Berlioz			verre		aérien	4	Quadria	Lineance				2018-08-09		Quadria_Lineance_4_A_c				2018-08-09	5.725556	45.192884	POINT (5.7255560309722355 45.19288411303583)
v_opendata_ctd_pav_tous.fid-26c1a268_169f8be4829_390e	438	Nord-Est	Grenoble	2	Place Saint Laurent / Quai des Allobroges / La Casemate CCSTI			verre		enterré	3	Citec							Citec__3_E_					5.732532	45.197886	POINT (5.732532289668134 45.1978862553111)
v_opendata_ctd_pav_tous.fid-26c1a268_169f8be4829_390f	439	Sud	Grenoble	6	27-33 Avenue Marie Reynoard			verre		aérien	3	Citec							Citec__3_A_c					5.72911	45.163184	POINT (5.729109827118137 45.16318369335568)
v_opendata_ctd_pav_tous.fid-26c1a268_169f8be4829_3910	440	Nord-Est	Grenoble	2	Place Vaucanson / Rue de la Liberté			verre		aérien	4	Quadria	Lineance						Quadria_Lineance_4_A_C					5.728283	45.188135	POINT (5.728283262622686 45.18813529125066)
v_opendata_ctd_pav_tous.fid-26c1a268_169f8be4829_3911	441	Nord-Ouest	Grenoble	1	Rue Joseph Rey / Rue Nicolas Chorier			verre		enterré	4	Citec	Evolution						Citec_Evolution_4_E_k					5.716979	45.186004	POINT (5.7169793818463095 45.18600363937114)
v_opendata_ctd_pav_tous.fid-26c1a268_169f8be4829_3912	442	Sud	Grenoble	6	Place du Marché / 100 Galerie de l'Arlequin / Chemin de la Piscine / Foyer CCAS			verre		enterré	4	Citec	Evolution						Citec_Evolution_4_E_k					5.732934	45.163061	POINT (5.7329336505228365 45.163060739281306)
v_opendata_ctd_pav_tous.fid-26c1a268_169f8be4829_3913	443	Sud	Grenoble	4	Rue René Lesage / Rue Amable Matussière / Rue Alphonse Daudet			verre		enterré	4	Citec							Citec__4_E_					5.720024	45.169784	POINT (5.720024345051289 45.169784525143655)
v_opendata_ctd_pav_tous.fid-26c1a268_169f8be4829_3914	444	Nord-Est	Grenoble	2	107 Cours Jean Jaurès			verre		enterré	4	Citec	Evolution						Citec_Evolution_4_E_k					5.717162	45.182026	POINT (5.717161904821752 45.18202643481656)
v_opendata_ctd_pav_tous.fid-26c1a268_169f8be4829_3915	445	Nord-Est	Grenoble	2	Rue de Belgrade / Rue de Palanka			verre		enterré	3	Plastic Omnium							Plastic Omnium__3_E_					5.724789	45.190508	POINT (5.724788534749413 45.19050816341354)
v_opendata_ctd_pav_tous.fid-26c1a268_169f8be4829_3916	446	Nord-Est	Grenoble	2	Place de Berulle / Quai Stéphane Jay			verre		enterré	3	Villiger							Villiger__3_E_					5.729139	45.19378	POINT (5.729139148684558 45.19377982877659)
v_opendata_ctd_pav_tous.fid-26c1a268_169f8be4829_3917	447	Nord-Est	Grenoble	2	Place Championnet / Rue Lakanal / Rue Condorcet			verre		enterré	4	METRO							METRO__4_E_					5.722369	45.185472	POINT (5.722369041804538 45.185471820834465)
v_opendata_ctd_pav_tous.fid-26c1a268_169f8be4829_3918	448	Nord-Est	Grenoble	2	Square Charles Michels / Rue Général Janssen / Rue Lieutenant de Quinsonas			verre		enterré	3	Bammens							Bammens__3_E_					5.71773	45.18139	POINT (5.717730477587808 45.181390281663504)
v_opendata_ctd_pav_tous.fid-26c1a268_169f8be4829_3919	449	Nord-Est	Grenoble	2	Rue Félix Poulat / Eglise St Louis / Rue de Sault / Rue de l'Abreuvoir			verre		enterré	3	Plastic Omnium							Plastic Omnium__3_E_					5.726128	45.189799	POINT (5.726127502450404 45.18979863421198)
v_opendata_ctd_pav_tous.fid-26c1a268_169f8be4829_391a	450	Nord-Ouest	Grenoble	1	Rue de la Frise / Ecole de commerce / Europôle			verre		enterré	3	Plastic Omnium	City Spot						Plastic Omnium_City Spot_3_E_k					5.713045	45.190531	POINT (5.713045029341485 45.19053093438985)
v_opendata_ctd_pav_tous.fid-26c1a268_169f8be4829_391b	451	Nord-Ouest	Grenoble	1	Place de la Gare			verre		enterré	3	Citec	Tulip						Citec_Tulip_3_E_k					5.71544	45.190862	POINT (5.7154403232338655 45.19086200397064)
v_opendata_ctd_pav_tous.fid-26c1a268_169f8be4829_391c	452	Nord-Est	Grenoble	2	Place Grenette / Rue de la République			verre		aérien	3	Quadria	Lineance						Quadria_Lineance_3_A_					5.727634	45.191101	POINT (5.72763431715525 45.19110129184493)
v_opendata_ctd_pav_tous.fid-26c1a268_169f8be4829_391d	453	Nord-Est	Grenoble	5	1 Avenue Bossuet / vers Place Jean Racine et Avenue Jean Perrot			verre		enterré	3	Plastic Omnium	City Spot						Plastic Omnium_City Spot_3_E_					5.741307	45.166955	POINT (5.741307002271925 45.16695492530525)
v_opendata_ctd_pav_tous.fid-26c1a268_169f8be4829_391e	454	Nord-Ouest	Grenoble	3	112-116 Cours de la Libération / Rue Greuze			verre		aérien	3	UTPM	Ecobox				2015-01		UTPM_Ecobox_3_A_c				2015-01	5.712278	45.168289	POINT (5.712277849436958 45.16828858163366)
v_opendata_ctd_pav_tous.fid-26c1a268_169f8be4829_391f	455	Nord-Est	Grenoble	2	Rue Président Carnot / Rue Jean-François Haché / Place Sainte-Claire			verre		enterré	4	METRO							METRO__4_E_					5.731094	45.191776	POINT (5.731094377773945 45.191776432087934)
v_opendata_ctd_pav_tous.fid-26c1a268_169f8be4829_3920	456	Nord-Est	Grenoble	2	Place Saint-André / Rue Hector Berlioz / Rue Guy Pape			verre		enterré	4	Citec	Evolution S	Type G4 BAMMENS					Citec_Evolution S_4_E_					5.727982	45.193144	POINT (5.727982411632418 45.19314425279623)
v_opendata_ctd_pav_tous.fid-26c1a268_169f8be4829_3921	457	Nord-Ouest	Grenoble	1	Place Saint-Bruno / Rue Abbé Grégoire			verre		enterré	4	Citec	Evolution				2011 octobre		Citec_Evolution_4_E_k				2011 octobre	5.712574	45.187346	POINT (5.712573758733859 45.18734641748279)
v_opendata_ctd_pav_tous.fid-26c1a268_169f8be4829_3922	458	Nord-Est	Grenoble	2	Rue de Turenne / Rue Augereau / Rue G. Rambaud / Collège privé Aigle - La Salle			verre		enterré	3	Plastic Omnium							Plastic Omnium__3_E_					5.719243	45.183166	POINT (5.719242711497098 45.183166317857534)
v_opendata_ctd_pav_tous.fid-26c1a268_169f8be4829_3923	459	Nord-Est	Grenoble	2	Place Victor Hugo / Av Alsace Lorraine / Rue du Docteur Mazet			verre		enterré	3	Plastic Omnium							Plastic Omnium__3_E_					5.723917	45.189119	POINT (5.723916530784035 45.189118699612116)
v_opendata_ctd_pav_tous.fid-26c1a268_169f8be4829_3924	461	Sud	Grenoble	6	Rue de Village / Rue Alfred de Musset			verre		enterré	3	Plastic Omnium							Plastic Omnium__3_E_					5.725537	45.164524	POINT (5.725536892956182 45.164524321387674)
v_opendata_ctd_pav_tous.fid-26c1a268_169f8be4829_3925	462	Nord-Ouest	Grenoble	1	Rue Jean Prévost / Rue Nicolas Chorier			verre		enterré	3	Citec	Tulip				???		Citec_Tulip_3_E_k				???	5.714397	45.18576	POINT (5.714397295937666 45.185759706058185)
v_opendata_ctd_pav_tous.fid-26c1a268_169f8be4829_3926	463	Nord-Est	Grenoble	2	Place Paul Vallier / Rue de Strasbourg / Rue du Manège			verre		enterré	3	Plastic Omnium							Plastic Omnium__3_E_					5.732456	45.186403	POINT (5.732455942552609 45.186402592689014)
v_opendata_ctd_pav_tous.fid-26c1a268_169f8be4829_3927	464	Sud	Grenoble	4	Rue Marcel Peretto / Rue Docteur Bordier			verre		enterré	3	Plastic Omnium	City Spot						Plastic Omnium_City Spot_3_E_k					5.730795	45.177643	POINT (5.730794686348716 45.177642662239315)
v_opendata_ctd_pav_tous.fid-26c1a268_169f8be4829_3928	465	Nord-Ouest	Grenoble	3	145 Cours de la Libération			verre		aérien	3	UTPM	Ecobox				2015-01		UTPM_Ecobox_3_A_c				2015-01	5.712491	45.168168	POINT (5.712491359050315 45.168167943554806)
v_opendata_ctd_pav_tous.fid-26c1a268_169f8be4829_3929	466	Sud	Grenoble	6	Allée des Romantiques / Rue Laurenzacio			verre		enterré	3	Plastic Omnium	City Spot						Plastic Omnium_City Spot_3_E_k					5.725496	45.165548	POINT (5.7254956119527565 45.16554816470582)
v_opendata_ctd_pav_tous.fid-26c1a268_169f8be4829_392a	467	Nord-Ouest	Grenoble	1	Rue d'Arménie			verre		enterré	3	Plastic Omnium	City-Spot						Plastic Omnium_City-Spot_3_E_k					5.710997	45.193236	POINT (5.710997354854548 45.19323602895524)
v_opendata_ctd_pav_tous.fid-26c1a268_169f8be4829_392b	468	Nord-Ouest	Grenoble	1	Rue du Docteur Hermite / Rue de Bourgogne			verre		enterré	3	Citec							Citec__3_E_					5.709	45.18176	POINT (5.708999680277709 45.18176004504244)
v_opendata_ctd_pav_tous.fid-26c1a268_169f8be4829_392c	469	Nord-Ouest	Grenoble	1	Rue Docteur Calmette / Rue Léon Drivier / Clinique Mutualiste			verre		enterré	4	Bammens							Bammens__4_E_					5.710121	45.180906	POINT (5.710121184320081 45.18090568685915)
v_opendata_ctd_pav_tous.fid-26c1a268_169f8be4829_392d	470	Nord-Ouest	Grenoble	3	37 Rue Albert Thomas			verre		enterré	4	Bammens							Bammens__4_E_					5.703109	45.169407	POINT (5.703109000761952 45.16940701488006)
v_opendata_ctd_pav_tous.fid-26c1a268_169f8be4829_392e	471	Sud	Grenoble	4	Avenue Jean Perrot / Rue Moyrand / Rue Mallifaud			verre		enterré	3	Plastic Omnium							Plastic Omnium__3_E_					5.735195	45.180485	POINT (5.735195117625199 45.18048488998857)
v_opendata_ctd_pav_tous.fid-26c1a268_169f8be4829_392f	472	Nord-Est	Grenoble	2	12 Bvd Maréchal Joffre / Hôtel Mercure			verre		enterré	3	Bammens							Bammens__3_E_					5.729246	45.183071	POINT (5.729246032130325 45.183071524346715)
v_opendata_ctd_pav_tous.fid-26c1a268_169f8be4829_3930	473	Nord-Est	Grenoble	2	Parking Philipeville / Rue Montorge / Rue de Belgrade			verre		enterré	4	METRO							METRO__4_E_					5.725258	45.191458	POINT (5.725258177634059 45.19145770599591)
v_opendata_ctd_pav_tous.fid-26c1a268_169f8be4829_3931	474	Nord-Ouest	Grenoble	1	Avenue Alsace Lorraine / Rue Crepu / Rue André Réal			verre		enterré	4	METRO	EMM2VK4						METRO_EMM2VK4_4_E_					5.71655	45.18984	POINT (5.716549625990797 45.18983960520506)
v_opendata_ctd_pav_tous.fid-26c1a268_169f8be4829_3932	475	Nord-Est	Grenoble	2	Place Condorcet / Rue Condorcet / Rue Thiers			verre		enterré	4	METRO							METRO__4_E_					5.720351	45.18553	POINT (5.720350553624818 45.18552968919231)
v_opendata_ctd_pav_tous.fid-26c1a268_169f8be4829_3933	476	Nord-Est	Grenoble	2	Place de la Cymaise ( colonne déplacée de 100m face au 20 Quai Perrière )			verre		enterré	4	METRO	EMM2VK4						METRO_EMM2VK4_4_E_k					5.727601	45.194328	POINT (5.727600878433446 45.19432760861437)
v_opendata_ctd_pav_tous.fid-26c1a268_169f8be4829_3934	477	Nord-Est	Grenoble	2	Place Jean Achard			verre		enterré	4	METRO							METRO__4_E_					5.72921	45.189378	POINT (5.72920973765982 45.189377913610315)
v_opendata_ctd_pav_tous.fid-26c1a268_169f8be4829_3935	478	Nord-Ouest	Grenoble	1	Rue du Vercors / Rue du Capitaine Veyron Lacroix			verre		enterré	4	METRO	EMM2VK4						METRO_EMM2VK4_4_E_k					5.710324	45.190854	POINT (5.710324062892511 45.19085448072837)
v_opendata_ctd_pav_tous.fid-26c1a268_169f8be4829_3936	479	Nord-Ouest	Grenoble	3	5 Avenue Rhin et Danube / Rue des Champs Elysées			verre		enterré	4	Citec	Evolution						Citec_Evolution_4_E_k					5.705505	45.179436	POINT (5.705504885589967 45.17943603184387)
v_opendata_ctd_pav_tous.fid-26c1a268_169f8be4829_3937	480	Nord-Ouest	Grenoble	1	Boulevard Joseph Vallier / Rue Ampère (angle bar-tabac Méditerrannée)			verre		enterré	4	Citec							Citec__4_E_					5.705572	45.180374	POINT (5.705571952425512 45.18037359831215)
v_opendata_ctd_pav_tous.fid-26c1a268_169f8be4829_3938	481	Nord-Ouest	Grenoble	1	Boulevard Joseph Vallier / Rue Eugène Varlin			verre		enterré	3	Citec							Citec__3_E_					5.70711	45.180327	POINT (5.70711002757128 45.18032670591354)
v_opendata_ctd_pav_tous.fid-26c1a268_169f8be4829_3939	482	Nord-Ouest	Grenoble	3	Boulevard Joseph Vallier / Rue Henri Moissan			verre		enterré	4	Citec	Evolution						Citec_Evolution_4_E_k					5.706911	45.179842	POINT (5.706911185449711 45.179842540333716)
v_opendata_ctd_pav_tous.fid-26c1a268_169f8be4829_393a	483	Nord-Ouest	Grenoble	3	Boulevard Joseph Vallier / Rue Marbeuf			verre		enterré	4	Citec	Evolution						Citec_Evolution_4_E_k					5.708089	45.179871	POINT (5.7080887381296 45.17987073367093)
v_opendata_ctd_pav_tous.fid-26c1a268_169f8be4829_393b	484	Nord-Ouest	Grenoble	1	Boulevard Joseph Vallier / Rue Léon Drivier			verre		enterré	4	Citec							Citec__4_E_					5.710108	45.180381	POINT (5.710108160073267 45.18038146752571)
v_opendata_ctd_pav_tous.fid-26c1a268_169f8be4829_393c	485	Nord-Ouest	Grenoble	1	Boulevard Joseph Vallier / Rue Pierre Ruibet			verre		enterré	4	Citec							Citec__4_E_					5.712148	45.180407	POINT (5.7121483941314155 45.18040749142747)
v_opendata_ctd_pav_tous.fid-26c1a268_169f8be4829_393d	486	Nord-Est	Grenoble	2	66 Boulevard Maréchal Foch / Escaliers Square Charles Michels			verre		enterré	4	Citec	Evolution						Citec_Evolution_4_E_k					5.717664	45.180583	POINT (5.717663746531278 45.18058306513923)
v_opendata_ctd_pav_tous.fid-26c1a268_169f8be4829_393e	487	Sud	Grenoble	4	Boulevard Maréchal Foch / Rue Général Mangin / Rue Duployé			verre		enterré	4	Citec	Evolution						Citec_Evolution_4_E_k					5.72099	45.180373	POINT (5.72098975883954 45.18037326207032)
v_opendata_ctd_pav_tous.fid-26c1a268_169f8be4829_393f	488	Nord-Est	Grenoble	2	Boulevard Maréchal Foch / Rue Commandant Gilot			verre		enterré	3	Citec	Evolution						Citec_Evolution_3_E_k					5.721677	45.18095	POINT (5.721677458940169 45.18094989739609)
v_opendata_ctd_pav_tous.fid-26c1a268_169f8be4829_3940	489	Sud	Grenoble	4	Boulevard Maréchal Foch / Rue Mallifaud			verre		enterré	4	Citec	Evolution						Citec_Evolution_4_E_k					5.725917	45.181268	POINT (5.725916518861239 45.181268181318536)
v_opendata_ctd_pav_tous.fid-26c1a268_169f8be4829_3941	490	Nord-Est	Grenoble	2	Boulevard Gambetta / Rue André Maginot			verre		enterré	4	Citec							Citec__4_E_					5.726727	45.182511	POINT (5.726726676452388 45.182511438725186)
v_opendata_ctd_pav_tous.fid-26c1a268_169f8be4829_3942	491	Nord-Est	Grenoble	5	Rue Jules Flandrin / Boulevard Général Gallieni			verre		enterré	4	Citec	Evolution						Citec_Evolution_4_E_k					5.744112	45.187172	POINT (5.744112300625048 45.18717197094131)
v_opendata_ctd_pav_tous.fid-26c1a268_169f8be4829_3943	492	Nord-Est	Grenoble	5	Av de Valmy / Av Jules Vallès / Ch de la Blanchisserie / Ch du Pont Carpin			verre		enterré	4	Citec	Evolution						Citec_Evolution_4_E_k					5.746714	45.185823	POINT (5.746713600236332 45.18582323153399)
v_opendata_ctd_pav_tous.fid-26c1a268_169f8be4829_3944	493	Nord-Ouest	Grenoble	1	Cours Berriat / Rue Gabriel Péri			verre		enterré	4	Citec	Evolution						Citec_Evolution_4_E_k					5.718063	45.188134	POINT (5.718063468796123 45.188134274042156)
v_opendata_ctd_pav_tous.fid-26c1a268_169f8be4829_3945	494	Nord-Est	Grenoble	2	Place Sainte-Claire / Rue Pierre Duclot			verre		enterré	4	Citec	Evolution S	Type G4 BAMMENS					Citec_Evolution S_4_E_					5.730656	45.191605	POINT (5.730655721244719 45.191605420391056)
v_opendata_ctd_pav_tous.fid-26c1a268_169f8be4829_3946	495	Nord-Est	Grenoble	2	Place de Metz / Rue Charles Tartari (Eglise St Joseph) / Rue de Strasbourg			verre		enterré	4	Citec							Citec__4_E_					5.730039	45.18714	POINT (5.730039152187603 45.1871397458529)
v_opendata_ctd_pav_tous.fid-26c1a268_169f8be4829_3947	496	Sud	Grenoble	6	Rue des 3 Epis / Rue Paul Helbronner			verre		enterré	4	Citec	Evolution						Citec_Evolution_4_E_k					5.73794	45.166255	POINT (5.737939933355037 45.166255158744505)
v_opendata_ctd_pav_tous.fid-26c1a268_169f8be4829_3948	497	Nord-Ouest	Grenoble	1	Rue Irvoy / Rue Jean Veyrat			verre		enterré	3	Plastic Omnium							Plastic Omnium__3_E_					5.713764	45.181152	POINT (5.71376386186939 45.18115213442433)
v_opendata_ctd_pav_tous.fid-26c1a268_169f8be4829_3949	499	Nord-Est	Grenoble	2	66 Quai Perrière			verre		enterré	4	Citec							Citec__4_E_					5.724865	45.193772	POINT (5.72486488898878 45.19377239142286)
v_opendata_ctd_pav_tous.fid-26c1a268_169f8be4829_394a	500	Nord-Ouest	Grenoble	1	Rue Colonel Tanant / Rue du Vercors			verre		enterré	4	Citec	Evolution						Citec_Evolution_4_E_k					5.706973	45.19114	POINT (5.706973090951476 45.191139572929764)
v_opendata_ctd_pav_tous.fid-26c1a268_169f8be4829_394b	501	Nord-Ouest	Grenoble	3	53 Cours de la Libération / Rue Gallice			verre		aérien	3	Quadria	Lineance						Citec_Cyclea_3_A_c				2019-02-25	5.715045	45.175743	POINT (5.715045449042372 45.17574283903174)
v_opendata_ctd_pav_tous.fid-26c1a268_169f8be4829_394c	502	Sud	Grenoble	6	Allée de la Sylphide / Allée des Deux Mondes			verre		enterré	4	Citec							Citec__4_E_					5.726676	45.167355	POINT (5.72667602693082 45.16735480788874)
v_opendata_ctd_pav_tous.fid-26c1a268_169f8be4829_394d	503	Nord-Ouest	Grenoble	3	Rue Albert Reynier / Stade Lesdiguières (entrée A tribune présidentielle)			verre		aérien	2.5	Citec	Cyclea						Citec_Cyclea_2.5_A_c					5.709909	45.165158	POINT (5.709908675138686 45.16515764611669)
v_opendata_ctd_pav_tous.fid-26c1a268_169f8be4829_394e	505	Sud	Grenoble	4	Rue Marquian / Chemin des Alpins			verre		aérien	3	Citec							Citec__3_A_c					5.718107	45.171466	POINT (5.71810667795484 45.171465542603514)
v_opendata_ctd_pav_tous.fid-26c1a268_169f8be4829_394f	506	Nord-Ouest	Grenoble	3	Rue Anatole France / Rue Capitaine Camine			verre		aérien	3	Quadria	Lineance						Citec_Cyclea_3_A_c					5.712178	45.173652	POINT (5.712177594434149 45.173652033442835)
v_opendata_ctd_pav_tous.fid-26c1a268_169f8be4829_3950	507	Sud	Grenoble	4	Rue Honoré de Balzac (en face du n°24) / Petits Charvets			verre		aérien	2.5	Citec	Cyclea						Citec_Cyclea_2.5_A_c					5.720781	45.173656	POINT (5.72078069912414 45.17365621764106)
v_opendata_ctd_pav_tous.fid-26c1a268_169f8be4829_3951	508	Nord-Est	Grenoble	5	Rue Paul Claudel / Parking Maison de la Culture MC2			verre		aérien	4	Villiger	City-Line						Villiger_City-Line_4_A_c					5.734891	45.172656	POINT (5.734891305326961 45.172655629282744)
v_opendata_ctd_pav_tous.fid-26c1a268_169f8be4829_3952	509	Nord-Est	Grenoble	5	Av Jean Perrot / Av Paul Cocat / Place du Marché			verre		enterré	4	Citec							Citec__4_E_					5.740341	45.171141	POINT (5.740340908326389 45.171140858990654)
v_opendata_ctd_pav_tous.fid-26c1a268_169f8be4829_3953	510	Sud	Grenoble	6	Déchèterie des Peupliers - Villeneuve / Rue des Peupliers			verre		aérien	2.5	Citec							Citec__2.5_A_c					5.730198	45.165094	POINT (5.730197993032218 45.16509449334298)
v_opendata_ctd_pav_tous.fid-26c1a268_169f8be4829_3954	511	Sud	Grenoble	6	Rue Maurice Dodero / face au 123 galerie de l'Arlequin			verre		aérien	3	Citec							Citec__3_A_c					5.73059	45.163917	POINT (5.730589776490652 45.163917468815114)
v_opendata_ctd_pav_tous.fid-26c1a268_169f8be4829_3955	512	Nord-Est	Grenoble	5	14 Rue André Argouges (parking supermarché ED)			verre		aérien	3	Citec	Cyclea						Citec_Cyclea_3_A_c					5.744086	45.177863	POINT (5.744086007133776 45.17786272920489)
v_opendata_ctd_pav_tous.fid-26c1a268_169f8be4829_3956	514	Nord-Ouest	Grenoble	1	4-6 Cours Jean Jaurès			verre		enterré	4	Citec	Evolution						Citec_Evolution_4_E_k					5.720069	45.191441	POINT (5.720069407386517 45.19144129882595)
v_opendata_ctd_pav_tous.fid-26c1a268_169f8be4829_3a8b	955	Sud	Grenoble	6	Avenue Marie Reynoard / Avenue La Bruyère			verre		enterré	4	Citec	Evolution						Citec_Evolution_4_E_k					5.728421	45.166561	POINT (5.72842096384977 45.16656116913041)
v_opendata_ctd_pav_tous.fid-26c1a268_169f8be4829_3a8c	956	Sud	Grenoble	6	Avenue de La Bruyère / Allée des Romantiques			verre		enterré	3	-							-__3_E_					5.725601	45.166545	POINT (5.725600998469093 45.166544917476116)
v_opendata_ctd_pav_tous.fid-26c1a268_169f8be4829_3a8d	957	Sud	Grenoble	6	Rue Lorenzaccio / Rue de Stalingrad			verre		enterré	3	-							-__3_E_					5.724041	45.165456	POINT (5.7240405324662795 45.165456486625516)
v_opendata_ctd_pav_tous.fid-26c1a268_169f8be4829_3a8e	958	Sud	Grenoble	6	Rue du Village / Avenue Marie Reynoard			verre		enterré	3	-							-__3_E_					5.728448	45.164057	POINT (5.728447674007247 45.16405694998761)
v_opendata_ctd_pav_tous.fid-26c1a268_169f8be4829_3a8f	959	Sud	Grenoble	6	Allée de la Sylphide / Rue Alfred de Vigny			verre		enterré	3	-							-__3_E_					5.724215	45.167355	POINT (5.724215201211218 45.16735476359126)
v_opendata_ctd_pav_tous.fid-26c1a268_169f8be4829_3ad1	1026	Sud	Grenoble	6	16 Avenue de Constantine / Parking des Cascatelles			verre		enterré	4	Citec	Tulip 4						Citec_Tulip 4_4_E_		2010 (été)			5.735877	45.160698	POINT (5.735877272965976 45.160697968984394)
v_opendata_ctd_pav_tous.fid-26c1a268_169f8be4829_3ad2	1027	Sud	Grenoble	6	35 Allée des Frênes			verre		enterré	4	Citec	Tulip 4						Citec_Tulip 4_4_E_		2010 (été)			5.736993	45.160884	POINT (5.736993332714893 45.16088377466904)
v_opendata_ctd_pav_tous.fid-26c1a268_169f8be4829_3aed	1057	Nord-Ouest	Grenoble	3	Rue André Abry / Rue Général Garibaldi			verre		aérien	3	Citec	Cyclea						Citec_Cyclea_3_A_c					5.71502	45.169634	POINT (5.715020204830176 45.169633827121864)
v_opendata_ctd_pav_tous.fid-26c1a268_169f8be4829_3aee	1058	Nord-Ouest	Grenoble	1	Rue de Bourgogne / Rue Raspail			verre		aérien	3	Quadria	Lineance						Citec_Cyclea_3_A_c					5.708968	45.182655	POINT (5.708967703184168 45.1826549664375)
v_opendata_ctd_pav_tous.fid-26c1a268_169f8be4829_3aef	1059	Nord-Ouest	Grenoble	3	14 rue Albert Thomas (algécos local jeunes)			verre		aérien	4	Villiger	City-Line						Villiger_City-Line_4_A_k					5.702384	45.170038	POINT (5.702384457909184 45.1700378518939)
v_opendata_ctd_pav_tous.fid-26c1a268_169f8be4829_3af0	1060	Nord-Ouest	Grenoble	3	59 Rue Albert Reynier / Parking Parc Bachelard			verre		aérien	3	UTPM	Ecobox						UTPM_Ecobox_3_A_c		août 2011			5.706111	45.166645	POINT (5.706111124703947 45.16664550387508)
v_opendata_ctd_pav_tous.fid-26c1a268_169f8be4829_3af1	1061	Sud	Grenoble	6	Rue des Colibris / Rue des Bergeronnettes			verre		enterré	4	Citec							Citec__4_E_					5.73021	45.167833	POINT (5.730210419555673 45.16783352537775)
v_opendata_ctd_pav_tous.fid-26c1a268_169f8be4829_3af2	1062	Nord-Est	Grenoble	2	Rue Berthe de Boissieux / Rue Lazare Carnot			verre		enterré	4	Citec	Evolution S	Type G4 BAMMENS					Citec_Evolution S_4_E_					5.723752	45.184335	POINT (5.723752484772624 45.184335373112326)
v_opendata_ctd_pav_tous.fid-26c1a268_169f8be4829_3afa	1070	Nord-Est	Grenoble	2	36 Allée Henri Frenay / ZAC de Bonne / proximité Rue Marceau			verre		enterré	4	Citec							Citec__4_E_		2012 (mars)			5.722929	45.182285	POINT (5.722928565207887 45.18228480026058)
v_opendata_ctd_pav_tous.fid-26c1a268_169f8be4829_3afe	1074	Sud	Grenoble	4	Rue Alfred de Vigny / Rue Guy de Maupassant			verre		enterré	4	Citec							Citec__4_E_		2012 (été)			5.720739	45.164307	POINT (5.720738862962834 45.164306915495786)
v_opendata_ctd_pav_tous.fid-26c1a268_169f8be4829_3b08	1084	Sud	Grenoble	6	Collège des Saules (cuisines) / 120 Place des Géants / Rue du 8 mai 1945			verre		enterré	4	Citec							Citec__4_E_		2013 (juin ?)			5.739523	45.162563	POINT (5.73952282176443 45.16256260707894)
v_opendata_ctd_pav_tous.fid-26c1a268_169f8be4829_3b09	1085	Sud	Grenoble	6	7-8-10 Allée de la Colline			verre		enterré	4	Citec							Citec__4_E_		2013 (juin ?)			5.738272	45.163447	POINT (5.738272313796453 45.16344665344327)
v_opendata_ctd_pav_tous.fid-26c1a268_169f8be4829_3b0a	1086	Sud	Grenoble	6	40-42 Avenue La Bruyère			verre		enterré	4	Citec							Citec__4_E_					5.73217	45.167717	POINT (5.732169810146523 45.16771670911685)
v_opendata_ctd_pav_tous.fid-26c1a268_169f8be4829_3b10	1092	Nord-Est	Grenoble	5	Parc Paul Mistral / La Bobine / Anneau de vitesse			verre		aérien	3	UTPM	Ecobox						UTPM_Ecobox_3_A_c					5.735704	45.183462	POINT (5.735704335068506 45.18346234449922)
v_opendata_ctd_pav_tous.fid-26c1a268_169f8be4829_3b95	1232	Sud	Grenoble	6	130 Galerie de l'Arlequin			verre		enterré	4	Citec	Evolution						Citec_Evolution_4_E_k		2015 (juillet)			5.731184	45.162951	POINT (5.731184042396839 45.16295091565564)
v_opendata_ctd_pav_tous.fid-26c1a268_169f8be4829_3b96	1233	Sud	Grenoble	6	24 Avenue de Constantine / Parking des Cascatelles			verre		aérien	4	Quadria	Lineance				2018-10-31		Quadria_Lineance_4_A_k				2018-10-31	5.734618	45.16038	POINT (5.734617965152225 45.16038019960448)
v_opendata_ctd_pav_tous.fid-26c1a268_169f8be4829_3b9c	1239	Nord-Est	Grenoble	5	Stade des Alpes (Tribune Nord - Escalier G) / Boulevard Jean Pain			verre		aérien	3	-							-__3_A_c		2016 (janvier)			5.740604	45.188409	POINT (5.740603788035719 45.18840946317002)
v_opendata_ctd_pav_tous.fid-26c1a268_169f8be4829_3b9d	1241	Sud	Grenoble	6	50-54 Allée des 2 Mondes / Jardin des Poètes			verre		aérien	4	Quadria	Lineance						UTPM_Ecobox_4_A_c					5.726961	45.165437	POINT (5.726960727723763 45.16543740049803)
v_opendata_ctd_pav_tous.fid-26c1a268_169f8be4829_3b9e	1242	Nord-Ouest	Grenoble	1	Salle de spectacle La Belle Electrique / Esplanade Andry Farcy / Bouchayer Viallet			verre		aérien	3	Quadria	Lineance						UTPM_Ecobox_3_A_c					5.704242	45.187417	POINT (5.70424172559961 45.187417054072576)
v_opendata_ctd_pav_tous.fid-26c1a268_169f8be4829_3ba1	1245	Sud	Grenoble	6	70-72 Avenue de Constantine			verre		enterré	0	Citec	Tulip 4						Citec_Tulip 4_0_E_		2015-11-09			5.732588	45.160272	POINT (5.732587851419717 45.16027162957496)
v_opendata_ctd_pav_tous.fid-26c1a268_169f8be4829_3ba2	1246	Sud	Grenoble	6	2 Allée de la Pelouse			verre		enterré	0	Citec	Tulip 4						Citec_Tulip 4_0_E_		2015-11			5.73665	45.162052	POINT (5.736649910532711 45.16205170868864)
v_opendata_ctd_pav_tous.fid-26c1a268_169f8be4829_3ba3	1247	Sud	Grenoble	6	30 Allée des Géants			verre		enterré	0	Citec	Tulip 4						Citec_Tulip 4_0_E_		2015-11			5.737151	45.162276	POINT (5.737150897872301 45.16227605095565)
v_opendata_ctd_pav_tous.fid-26c1a268_169f8be4829_3ba4	1248	Sud	Grenoble	6	14 Allée des Genêts / Crêche des Frênes			verre		enterré	0	Citec	Tulip 4						Citec_Tulip 4_0_E_		2015-11			5.735006	45.161466	POINT (5.735005689841099 45.16146591680704)
v_opendata_ctd_pav_tous.fid-26c1a268_169f8be4829_3ba9	1253	Nord-Est	Grenoble	2	17 Cours Jean Jaurès (vers croisement Avenue Alsace Lorraine)			verre		enterré	0	-							-__0_E_k		???	Demander à FVI		5.71954	45.189063	POINT (5.71953992483942 45.18906300579378)
v_opendata_ctd_pav_tous.fid-26c1a268_169f8be4829_3bad	1257	Nord-Ouest	Grenoble	1	Rue René Maus / Rue Aimé Requet			verre		enterré	4	Plastic Omnium	Minimax 4				2018-07-16		Plastic Omnium_Minimax 4_4_E_k		2017-09-21		2018-07-16	5.706634	45.201921	POINT (5.706633863031748 45.2019207017531)
v_opendata_ctd_pav_tous.fid-26c1a268_169f8be4829_3bae	1258	Nord-Ouest	Grenoble	1	Rue Capitaine Lanvin Lespiau / Rue Aimé Requet			verre		enterré	4	Plastic Omnium	Minimax 4				2018-07-16		Plastic Omnium_Minimax 4_4_E_k		2017-09-21		2018-07-16	5.705613	45.202431	POINT (5.705612954994966 45.202431302238494)
v_opendata_ctd_pav_tous.fid-26c1a268_169f8be4829_3bb0	1260	Nord-Est	Grenoble	2	7-9 Rue Camille Desmoulins / Derrière Mc Donald Aigle			verre		aérien	4.2	Quadria	Lineance						Quadria_Lineance_4.2_A_c		???	Ré-implantation après travaux tram		5.71839	45.182913	POINT (5.7183900359971425 45.18291279803644)
v_opendata_ctd_pav_tous.fid-26c1a268_169f8be4829_3bd3	1296	Sud	Grenoble	6	60 Galerie de l'Arlequin		VER	verre	CE	enterré	4	Citec							Citec__4_E_k		2018-05-31			5.73271	45.164684	POINT (5.732710053086133 45.16468441660776)
v_opendata_ctd_pav_tous.fid-26c1a268_169f8be4829_3bd6	1299	Nord-Ouest	Grenoble	1	Rue Marcelle Bonin		VER	verre	CE	enterré	4	Plastic Omnium	Minimax 4						Plastic Omnium_Minimax 4_4_E_k		2018-07-16	Nouveau site de collecte		5.706961	45.20104	POINT (5.706960766011948 45.2010401822314)
v_opendata_ctd_pav_tous.fid-26c1a268_169f8be4829_3be8	1317	Sud	Grenoble	5	Parc Paul Mistral / Anneau de vitesse		VER	verre	CA	aérien	0	UTPM	Ecobox								2019-03-19	Pérénisation site de collecte saisonnier		5.736031	45.184397	POINT (5.736030885157635 45.1843967764986)
v_opendata_ctd_pav_tous.fid-26c1a268_169f8be4829_3d1f	5001	Nord-Est	Grenoble	2	66-68 Quai Perrière	Saint Laurent	OMR	ordures ménagères résiduelles	CE	enterré	5	Citec			double tambour			bon		2018-06				5.72489	45.193777	POINT (5.7248898834767 45.19377674518804)
v_opendata_ctd_pav_tous.fid-26c1a268_169f8be4829_3d20	5002	Nord-Est	Grenoble	2	66-68 Quai Perrière	Saint Laurent	OMR	ordures ménagères résiduelles	CE	enterré	5	Citec			double tambour			bon		2018-06				5.724912	45.193781	POINT (5.724911543079889 45.19378084712012)
v_opendata_ctd_pav_tous.fid-26c1a268_169f8be4829_3d21	5003	Nord-Est	Grenoble	2	66-68 Quai Perrière	Saint Laurent	OMR	ordures ménagères résiduelles	CE	enterré	5	Citec			double tambour			bon		2018-06				5.724933	45.193785	POINT (5.7249331937824595 45.19378494925986)
v_opendata_ctd_pav_tous.fid-26c1a268_169f8be4829_3d22	5004	Nord-Est	Grenoble	2	66-68 Quai Perrière	Saint Laurent	CS	collecte sélective	CE	enterré	3	Citec												5.724953	45.193788	POINT (5.7249534644248365 45.193788147826425)
v_opendata_ctd_pav_tous.fid-26c1a268_169f8be4829_3d23	5005	Nord-Est	Grenoble	2	3 Quai des Allobroges	Saint Laurent	OMR	ordures ménagères résiduelles	CE	enterré	4	Citec			double tambour			bon		2018-06				5.73403	45.20142	POINT (5.734030029197293 45.201419950102725)
v_opendata_ctd_pav_tous.fid-26c1a268_169f8be4829_3d24	5006	Nord-Est	Grenoble	2	3 Quai des Allobroges	Saint Laurent	CS	collecte sélective	CE	enterré	4	Citec												5.734038	45.201439	POINT (5.734037813316103 45.20143864900873)
v_opendata_ctd_pav_tous.fid-26c1a268_169f8be4829_3d25	5007	Nord-Est	Grenoble	5	Place Joseph Riboud	Abbaye	CS	collecte sélective	CE	enterré	4	Citec												5.745489	45.180037	POINT (5.745488632592944 45.1800372124217)
v_opendata_ctd_pav_tous.fid-26c1a268_169f8be4829_3d26	5008	Nord-Est	Grenoble	5	Place Joseph Riboud	Abbaye	OMR	ordures ménagères résiduelles	CE	enterré	3	Citec			double tambour			bon		2018-06				5.745485	45.180059	POINT (5.745484557446742 45.18005910143912)
v_opendata_ctd_pav_tous.fid-26c1a268_169f8be4829_3d27	5009	Nord-Est	Grenoble	5	Place Joseph Riboud	Abbaye	OMR	ordures ménagères résiduelles	CE	enterré	3	Citec			double tambour			bon		2018-06				5.745479	45.180081	POINT (5.745479156229773 45.18008102764875)
v_opendata_ctd_pav_tous.fid-26c1a268_169f8be4829_3d28	5010	Nord-Est	Grenoble	5	Place Joseph Riboud	Abbaye	OMR	ordures ménagères résiduelles	CE	enterré	4	Citec			double tambour			bon		2018-06				5.745476	45.180103	POINT (5.745476415874091 45.18010287566229)
v_opendata_ctd_pav_tous.fid-26c1a268_169f8be4829_3d29	5011	Nord-Est	Grenoble	5	Place André Charpin	Abbaye	OMR	ordures ménagères résiduelles	CE	enterré	3	Citec			double tambour			bon		2018-06				5.745587	45.179341	POINT (5.745587074031087 45.17934150433571)
v_opendata_ctd_pav_tous.fid-26c1a268_169f8be4829_3d2a	5012	Nord-Est	Grenoble	5	Place André Charpin	Abbaye	OMR	ordures ménagères résiduelles	CE	enterré	3	Citec			double tambour			bon		2018-06				5.745582	45.179362	POINT (5.745581600955618 45.17936248686584)
v_opendata_ctd_pav_tous.fid-26c1a268_169f8be4829_3d2b	5013	Nord-Est	Grenoble	5	Place André Charpin	Abbaye	CS	collecte sélective	CE	enterré	4	Citec												5.745611	45.179345	POINT (5.745611336239873 45.17934457825696)
v_opendata_ctd_pav_tous.fid-26c1a268_169f8be4829_3d2c	5014	Nord-Est	Grenoble	5	Place André Charpin	Abbaye	OMR	ordures ménagères résiduelles	CE	enterré	4	Citec			double tambour			bon		2018-06				5.745606	45.179366	POINT (5.745605872074404 45.179365560574794)
v_opendata_ctd_pav_tous.fid-26c1a268_169f8be4829_3d2d	5015	Nord-Est	Grenoble	5	Place Laurent Bonnevay	Abbaye	OMR	ordures ménagères résiduelles	CE	enterré	4	Citec			double tambour			bon		2018-06				5.745583	45.178635	POINT (5.745583135513294 45.17863459880712)
v_opendata_ctd_pav_tous.fid-26c1a268_169f8be4829_3d2e	5016	Nord-Est	Grenoble	5	Place Laurent Bonnevay	Abbaye	CS	collecte sélective	CE	enterré	4	Citec												5.745589	45.178609	POINT (5.745588748396687 45.178609469307624)
v_opendata_ctd_pav_tous.fid-26c1a268_169f8be4829_3d2f	5017	Nord-Est	Grenoble	5	Place Laurent Bonnevay	Abbaye	OMR	ordures ménagères résiduelles	CE	enterré	3	Citec			double tambour			bon		2018-06				5.745593	45.178576	POINT (5.745593069964291 45.17857561893889)
v_opendata_ctd_pav_tous.fid-26c1a268_169f8be4829_3d30	5018	Nord-Est	Grenoble	5	Place Laurent Bonnevay	Abbaye	OMR	ordures ménagères résiduelles	CE	enterré	3	Citec			double tambour			bon		2018-06				5.745596	45.178554	POINT (5.745595801301188 45.17855377112833)
v_opendata_ctd_pav_tous.fid-26c1a268_169f8be4829_3d31	5019	Nord-Est	Grenoble	5	5 Rue Gaston Letonnelier	Teisseire	OMR	ordures ménagères résiduelles	CE	enterré	3	Bammens			double tambour			bon		2018-06				5.743606	45.171461	POINT (5.743605607722795 45.17146137818549)
v_opendata_ctd_pav_tous.fid-26c1a268_169f8be4829_3d32	5020	Nord-Est	Grenoble	5	5 Rue Gaston Letonnelier	Teisseire	CS	collecte sélective	CE	enterré	3	Bammens												5.743609	45.17148	POINT (5.743609387189602 45.171480201314736)
v_opendata_ctd_pav_tous.fid-26c1a268_169f8be4829_3d33	5021	Nord-Est	Grenoble	5	11 Rue Gaston Letonnelier	Teisseire	OMR	ordures ménagères résiduelles	CE	enterré	3	Bammens			double tambour			bon		2018-06				5.743514	45.17097	POINT (5.743513957245275 45.17096999946573)
v_opendata_ctd_pav_tous.fid-26c1a268_169f8be4829_3d34	5022	Nord-Est	Grenoble	5	11 Rue Gaston Letonnelier	Teisseire	CS	collecte sélective	CE	enterré	3	Bammens												5.743518	45.17099	POINT (5.743517799584197 45.17098976470574)
v_opendata_ctd_pav_tous.fid-26c1a268_169f8be4829_3d35	5023	Nord-Est	Grenoble	5	19 Rue Gaston Letonnelier	Teisseire	OMR	ordures ménagères résiduelles	CE	enterré	4	Bammens			double tambour			bon		2018-06				5.742901	45.170096	POINT (5.742900872777761 45.17009635992467)
v_opendata_ctd_pav_tous.fid-26c1a268_169f8be4829_3d36	5024	Nord-Est	Grenoble	5	19 Rue Gaston Letonnelier	Teisseire	CS	collecte sélective	CE	enterré	4	Bammens												5.742898	45.170075	POINT (5.742898257230175 45.170074669047885)
v_opendata_ctd_pav_tous.fid-26c1a268_169f8be4829_3d37	5025	Nord-Est	Grenoble	5	19 Rue Gaston Letonnelier	Teisseire	CS	collecte sélective	CE	enterré	3	Bammens												5.742905	45.170115	POINT (5.742904651837003 45.17011518128431)
v_opendata_ctd_pav_tous.fid-26c1a268_169f8be4829_3d38	5026	Nord-Est	Grenoble	5	20 Rue Gaston Letonnelier	Teisseire	OMR	ordures ménagères résiduelles	CE	enterré	4	Bammens			double tambour			bon		2018-06				5.742158	45.169962	POINT (5.742158430577812 45.16996192382127)
v_opendata_ctd_pav_tous.fid-26c1a268_169f8be4829_3d39	5027	Nord-Est	Grenoble	5	20 Rue Gaston Letonnelier	Teisseire	CS	collecte sélective	CE	enterré	4	Bammens												5.742196	45.169958	POINT (5.742195665256822 45.1699579959704)
v_opendata_ctd_pav_tous.fid-26c1a268_169f8be4829_3d3a	5028	Nord-Est	Grenoble	5	27 Rue Gaston Letonnelier	Teisseire	OMR	ordures ménagères résiduelles	CE	enterré	3	Citec			double tambour			bon		2018-06				5.74278	45.169533	POINT (5.742779596198704 45.1695329654842)
v_opendata_ctd_pav_tous.fid-26c1a268_169f8be4829_3d3b	5029	Nord-Est	Grenoble	5	27 Rue Gaston Letonnelier	Teisseire	OMR	ordures ménagères résiduelles	CE	enterré	3	Citec			double tambour			bon		2018-06				5.74279	45.169589	POINT (5.742789589182062 45.16958945997463)
v_opendata_ctd_pav_tous.fid-26c1a268_169f8be4829_3d3c	5030	Nord-Est	Grenoble	5	27 Rue Gaston Letonnelier	Teisseire	CS	collecte sélective	CE	enterré	5	Citec												5.742783	45.169553	POINT (5.742783420302149 45.169552729382914)
v_opendata_ctd_pav_tous.fid-26c1a268_169f8be4829_3d3d	5031	Nord-Est	Grenoble	5	27 Rue Gaston Letonnelier	Teisseire	CS	collecte sélective	CE	enterré	3	Citec												5.742786	45.169572	POINT (5.742785873374626 45.169571586111445)
v_opendata_ctd_pav_tous.fid-26c1a268_169f8be4829_3d3e	5032	Nord-Est	Grenoble	5	1 Rue René Fernandat	Teisseire	OMR	ordures ménagères résiduelles	CE	enterré	3	Bammens			double tambour			bon		2018-06				5.744405	45.170466	POINT (5.744405026272337 45.17046592628062)
v_opendata_ctd_pav_tous.fid-26c1a268_169f8be4829_3d3f	5033	Nord-Est	Grenoble	5	1 Rue René Fernandat	Teisseire	CS	collecte sélective	CE	enterré	3	Bammens												5.744434	45.170463	POINT (5.744434298315998 45.17046317538727)
v_opendata_ctd_pav_tous.fid-26c1a268_169f8be4829_3d40	5034	Nord-Est	Grenoble	5	9 Rue René Fernandat	Teisseire	OMR	ordures ménagères résiduelles	CE	enterré	4	Citec			double tambour			bon		2018-06				5.743584	45.17055	POINT (5.74358440788619 45.17055053373188)
v_opendata_ctd_pav_tous.fid-26c1a268_169f8be4829_3d41	5035	Nord-Est	Grenoble	5	9 Rue René Fernandat	Teisseire	CS	collecte sélective	CE	enterré	4	Citec												5.743611	45.170548	POINT (5.74361101967423 45.17054786299969)
v_opendata_ctd_pav_tous.fid-26c1a268_169f8be4829_3d42	5036	Nord-Est	Grenoble	5	7 Rue Louis Jacquemet	Teisseire	OMR	ordures ménagères résiduelles	CE	enterré	3	Bammens			double tambour			bon		2018-06				5.741343	45.170501	POINT (5.741342973840091 45.17050068005165)
v_opendata_ctd_pav_tous.fid-26c1a268_169f8be4829_3d43	5037	Nord-Est	Grenoble	5	7 Rue Louis Jacquemet	Teisseire	CS	collecte sélective	CE	enterré	3	Bammens												5.741317	45.170508	POINT (5.7413166414600445 45.17050807423495)
v_opendata_ctd_pav_tous.fid-26c1a268_169f8be4829_3d44	5038	Nord-Ouest	Grenoble	3	49 Rue Anatole France	Mistral	OMR	ordures ménagères résiduelles	CE	enterré	4	Citec			double tambour			bon		2018-06				5.703809	45.172394	POINT (5.703808683565965 45.172393731703565)
v_opendata_ctd_pav_tous.fid-26c1a268_169f8be4829_3d45	5039	Nord-Ouest	Grenoble	3	49 Rue Anatole France	Mistral	CS	collecte sélective	CE	enterré	3	Citec												5.70381	45.172414	POINT (5.703809833771216 45.17241357231767)
v_opendata_ctd_pav_tous.fid-26c1a268_169f8be4829_3d46	5040	Nord-Ouest	Grenoble	3	51-53 Rue Anatole France	Mistral	CS	collecte sélective	CE	enterré	4	Citec												5.703201	45.172536	POINT (5.703201427562639 45.17253623419535)
v_opendata_ctd_pav_tous.fid-26c1a268_169f8be4829_3d47	5041	Nord-Ouest	Grenoble	3	51-53 Rue Anatole France	Mistral	OMR	ordures ménagères résiduelles	CE	enterré	3	Citec			double tambour			bon		2018-06				5.703056	45.172541	POINT (5.703055878910837 45.1725413969905)
v_opendata_ctd_pav_tous.fid-26c1a268_169f8be4829_3d48	5042	Nord-Ouest	Grenoble	3	51-53 Rue Anatole France	Mistral	OMR	ordures ménagères résiduelles	CE	enterré	3	Citec			double tambour			bon		2018-06				5.703018	45.172542	POINT (5.703018479425699 45.172542477908145)
v_opendata_ctd_pav_tous.fid-26c1a268_169f8be4829_3d49	5043	Nord-Ouest	Grenoble	3	1-3 Rue Albert Thomas	Mistral	OMR	ordures ménagères résiduelles	CE	enterré	3	Citec			double tambour			bon		2018-06				5.702632	45.172307	POINT (5.702631521855353 45.17230664360383)
v_opendata_ctd_pav_tous.fid-26c1a268_169f8be4829_3d4a	5044	Nord-Ouest	Grenoble	3	1-3 Rue Albert Thomas	Mistral	OMR	ordures ménagères résiduelles	CE	enterré	3	Citec			double tambour			bon		2018-06				5.702632	45.172284	POINT (5.7026315462759944 45.17228392826493)
v_opendata_ctd_pav_tous.fid-26c1a268_169f8be4829_3d4b	5045	Nord-Ouest	Grenoble	3	1-3 Rue Albert Thomas	Mistral	CS	collecte sélective	CE	enterré	4	Citec												5.702626	45.172188	POINT (5.702625975116133 45.17218754992565)
v_opendata_ctd_pav_tous.fid-26c1a268_169f8be4829_3d4c	5046	Nord-Ouest	Grenoble	3	5-7 Rue Albert Thomas	Mistral	CS	collecte sélective	CE	enterré	3	Citec												5.702616	45.171833	POINT (5.7026161691490485 45.171832911351295)
v_opendata_ctd_pav_tous.fid-26c1a268_169f8be4829_3d4d	5047	Nord-Ouest	Grenoble	3	5-7 Rue Albert Thomas	Mistral	OMR	ordures ménagères résiduelles	CE	enterré	3	Citec			double tambour			bon		2018-06				5.702639	45.171833	POINT (5.70263893945286 45.171833195067066)
v_opendata_ctd_pav_tous.fid-26c1a268_169f8be4829_3d4e	5048	Nord-Ouest	Grenoble	3	5-7 Rue Albert Thomas	Mistral	OMR	ordures ménagères résiduelles	CE	enterré	4	Citec			double tambour			bon		2018-06				5.702615	45.171816	POINT (5.702615188442223 45.17181589932485)
v_opendata_ctd_pav_tous.fid-26c1a268_169f8be4829_3d4f	5049	Nord-Ouest	Grenoble	3	9 Rue Albert Thomas	Mistral	OMR	ordures ménagères résiduelles	CE	enterré	4	Citec			double tambour			bon		2018-06				5.702609	45.171574	POINT (5.702609211231454 45.171573778980786)
v_opendata_ctd_pav_tous.fid-26c1a268_169f8be4829_3d50	5050	Nord-Ouest	Grenoble	3	9 Rue Albert Thomas	Mistral	CS	collecte sélective	CE	enterré	4	Citec												5.702608	45.171549	POINT (5.702607802953044 45.171549213859876)
v_opendata_ctd_pav_tous.fid-26c1a268_169f8be4829_3d51	5051	Nord-Ouest	Grenoble	3	11-13 Rue Albert Thomas	Mistral	CS	collecte sélective	CE	enterré	3	Citec												5.702597	45.171293	POINT (5.702597001580711 45.171293035393774)
v_opendata_ctd_pav_tous.fid-26c1a268_169f8be4829_3d52	5052	Nord-Ouest	Grenoble	3	11-13 Rue Albert Thomas	Mistral	OMR	ordures ménagères résiduelles	CE	enterré	3	Citec			double tambour			bon		2018-06				5.702621	45.171292	POINT (5.7026210440298035 45.17129233648138)
v_opendata_ctd_pav_tous.fid-26c1a268_169f8be4829_3d53	5053	Nord-Ouest	Grenoble	3	11-13 Rue Albert Thomas	Mistral	OMR	ordures ménagères résiduelles	CE	enterré	4	Citec			double tambour			bon		2018-06				5.702595	45.171274	POINT (5.702594570218212 45.17127417040918)
v_opendata_ctd_pav_tous.fid-26c1a268_169f8be4829_3d54	5054	Nord-Ouest	Grenoble	3	15 Rue Albert Thomas	Mistral	OMR	ordures ménagères résiduelles	CE	enterré	3	Citec			double tambour			bon		2018-06				5.702557	45.170837	POINT (5.702557252562026 45.17083704007572)
v_opendata_ctd_pav_tous.fid-26c1a268_169f8be4829_3d55	5055	Nord-Ouest	Grenoble	3	15 Rue Albert Thomas	Mistral	CS	collecte sélective	CE	enterré	3	Citec												5.702584	45.170836	POINT (5.702583964298764 45.17083626556058)
v_opendata_ctd_pav_tous.fid-26c1a268_169f8be4829_3d56	5056	Nord-Ouest	Grenoble	3	27, 29, 31, 33 Rue Albert Thomas	Mistral	OMR	ordures ménagères résiduelles	CE	enterré	4	Citec			double tambour			bon		2018-06				5.703053	45.169877	POINT (5.703052722879784 45.169876966058816)
v_opendata_ctd_pav_tous.fid-26c1a268_169f8be4829_3d57	5057	Nord-Ouest	Grenoble	3	27, 29, 31, 33 Rue Albert Thomas	Mistral	OMR	ordures ménagères résiduelles	CE	enterré	4	Citec			double tambour			bon		2018-06				5.703088	45.169876	POINT (5.703087841777534 45.16987592992251)
v_opendata_ctd_pav_tous.fid-26c1a268_169f8be4829_3d58	5058	Nord-Ouest	Grenoble	3	27, 29, 31, 33 Rue Albert Thomas	Mistral	CS	collecte sélective	CE	enterré	4	Citec												5.70313	45.16983	POINT (5.703129807631179 45.169829844605445)
v_opendata_ctd_pav_tous.fid-26c1a268_169f8be4829_3d59	5059	Nord-Ouest	Grenoble	3	27, 29, 31, 33 Rue Albert Thomas	Mistral	OMR	ordures ménagères résiduelles	CE	enterré	4	Citec			double tambour			bon		2018-06				5.703129	45.169806	POINT (5.703128897301948 45.16980639499703)
v_opendata_ctd_pav_tous.fid-26c1a268_169f8be4829_3d5a	5060	Nord-Ouest	Grenoble	3	35, 37 Rue Albert Thomas	Mistral	CS	collecte sélective	CE	enterré	4	Citec												5.703114	45.169498	POINT (5.703114252364751 45.16949844169077)
v_opendata_ctd_pav_tous.fid-26c1a268_169f8be4829_3d5b	5061	Nord-Ouest	Grenoble	3	35, 37 Rue Albert Thomas	Mistral	OMR	ordures ménagères résiduelles	CE	enterré	4	Citec			double tambour			bon		2018-06				5.703113	45.169472	POINT (5.703112983244131 45.16947191945124)
v_opendata_ctd_pav_tous.fid-26c1a268_169f8be4829_3d5c	5062	Nord-Ouest	Grenoble	3	39, 41, 43, 45 Rue Albert Thomas	Mistral	OMR	ordures ménagères résiduelles	CE	enterré	4	Citec			double tambour			bon		2018-06				5.703102	45.169222	POINT (5.703102050909363 45.16922169186886)
v_opendata_ctd_pav_tous.fid-26c1a268_169f8be4829_3d5d	5063	Nord-Ouest	Grenoble	3	39, 41, 43, 45 Rue Albert Thomas	Mistral	CS	collecte sélective	CE	enterré	4	Citec												5.703101	45.169198	POINT (5.703100770790352 45.16919833562301)
v_opendata_ctd_pav_tous.fid-26c1a268_169f8be4829_3d5e	5064	Nord-Ouest	Grenoble	3	39, 41, 43, 45 Rue Albert Thomas	Mistral	OMR	ordures ménagères résiduelles	CE	enterré	4	Citec			double tambour			bon		2018-06				5.703054	45.169156	POINT (5.703054189183195 45.1691563953303)
v_opendata_ctd_pav_tous.fid-26c1a268_169f8be4829_3d5f	5065	Nord-Ouest	Grenoble	3	39, 41, 43, 45 Rue Albert Thomas	Mistral	OMR	ordures ménagères résiduelles	CE	enterré	4	Citec			double tambour			bon		2018-06				5.703023	45.169157	POINT (5.7030225820488365 45.169157071248435)
v_opendata_ctd_pav_tous.fid-26c1a268_169f8be4829_3d7b	5093	Sud	Grenoble	6	30 Galerie de l'Arlequin	Villeneuve	CS	collecte sélective	CE	enterré	5	Citec												5.731409	45.165738	POINT (5.731408695159576 45.16573771139322)
v_opendata_ctd_pav_tous.fid-26c1a268_169f8be4829_3d7c	5094	Sud	Grenoble	6	30 Galerie de l'Arlequin	Villeneuve	OMR	ordures ménagères résiduelles	CE	enterré	5	Citec			double tambour			bon		2018-06				5.731408	45.165763	POINT (5.731407509507046 45.16576330178207)
v_opendata_ctd_pav_tous.fid-26c1a268_169f8be4829_3d7d	5095	Sud	Grenoble	6	30 Galerie de l'Arlequin	Villeneuve	OMR	ordures ménagères résiduelles	CE	enterré	5	Citec			double tambour			bon		2018-06				5.731407	45.165786	POINT (5.731407496492927 45.16578601715923)
v_opendata_ctd_pav_tous.fid-26c1a268_169f8be4829_3d8c	5110	Sud	Grenoble	6	24, 52, 54 Avenue de Constantine / Parking des Cascatelles	Villeneuve	OMR	ordures ménagères résiduelles	CE	enterré	5	Citec			double tambour			bon		2018-06				5.734673	45.160406	POINT (5.734673116467634 45.16040573763604)
v_opendata_ctd_pav_tous.fid-26c1a268_169f8be4829_3d8d	5111	Sud	Grenoble	6	24, 52, 54 Avenue de Constantine / Parking des Cascatelles	Villeneuve	CS	collecte sélective	CE	enterré	5	Citec												5.734698	45.160423	POINT (5.734697740125975 45.16042310148901)
v_opendata_ctd_pav_tous.fid-26c1a268_169f8be4829_3d8e	5112	Sud	Grenoble	6	24, 52, 54 Avenue de Constantine / Parking des Cascatelles	Villeneuve	OMR	ordures ménagères résiduelles	CE	enterré	5	Citec			double tambour			bon		2018-06				5.734722	45.160442	POINT (5.734722169810088 45.16044200063937)
v_opendata_ctd_pav_tous.fid-26c1a268_169f8be4829_3d8f	5113	Sud	Grenoble	6	18, 22 Avenue de Constantine / Parking des Cascatelles	Villeneuve	OMR	ordures ménagères résiduelles	CE	enterré	5	Citec			double tambour			bon		2018-06				5.73513	45.160581	POINT (5.735129728715604 45.16058117142132)
v_opendata_ctd_pav_tous.fid-26c1a268_169f8be4829_3d90	5114	Sud	Grenoble	6	18, 22 Avenue de Constantine / Parking des Cascatelles	Villeneuve	CS	collecte sélective	CE	enterré	5	Citec												5.735167	45.160581	POINT (5.735167194790898 45.160580904786315)
v_opendata_ctd_pav_tous.fid-26c1a268_169f8be4829_3d91	5115	Sud	Grenoble	6	18, 22 Avenue de Constantine / Parking des Cascatelles	Villeneuve	OMR	ordures ménagères résiduelles	CE	enterré	5	Citec			double tambour			bon		2018-06				5.735207	45.160581	POINT (5.735206590791803 45.160580943183284)
v_opendata_ctd_pav_tous.fid-26c1a268_169f8be4829_3d92	5116	Sud	Grenoble	6	16 Avenue de Constantine / Parking des Cascatelles	Villeneuve	OMR	ordures ménagères résiduelles	CE	enterré	5	Citec			double tambour			bon		2018-06				5.735786	45.160714	POINT (5.7357860431805205 45.160713724930105)
v_opendata_ctd_pav_tous.fid-26c1a268_169f8be4829_3d93	5117	Sud	Grenoble	6	16 Avenue de Constantine / Parking des Cascatelles	Villeneuve	OMR	ordures ménagères résiduelles	CE	enterré	5	Citec			double tambour			bon		2018-06				5.735819	45.160736	POINT (5.735819482715741 45.16073641170126)
v_opendata_ctd_pav_tous.fid-26c1a268_169f8be4829_3d94	5118	Sud	Grenoble	6	16 Avenue de Constantine / Parking des Cascatelles	Villeneuve	CS	collecte sélective	CE	enterré	5	Citec												5.735853	45.160715	POINT (5.735852989608806 45.1607146065955)
v_opendata_ctd_pav_tous.fid-26c1a268_169f8be4829_3d95	5119	Sud	Grenoble	6	3, 5 Allée des Frênes	Villeneuve	OMR	ordures ménagères résiduelles	CE	enterré	5	Citec			double tambour			bon		2018-06				5.737051	45.16084	POINT (5.737050933150287 45.160839554735034)
v_opendata_ctd_pav_tous.fid-26c1a268_169f8be4829_3d96	5120	Sud	Grenoble	6	3, 5 Allée des Frênes	Villeneuve	CS	collecte sélective	CE	enterré	5	Citec												5.737009	45.160871	POINT (5.73700862576209 45.16087107875939)
v_opendata_ctd_pav_tous.fid-26c1a268_169f8be4829_3d97	5121	Sud	Grenoble	6	3, 5 Allée des Frênes	Villeneuve	OMR	ordures ménagères résiduelles	CE	enterré	5	Citec			double tambour			bon		2018-06				5.736969	45.160896	POINT (5.736968600032652 45.1608959105133)
v_opendata_ctd_pav_tous.fid-26c1a268_169f8be4829_3d98	5122	Sud	Grenoble	6	7, 12  Allée des Frênes	Villeneuve	OMR	ordures ménagères résiduelles	CE	enterré	5	Citec			double tambour			bon		2018-06				5.736608	45.161152	POINT (5.736607606576791 45.16115160292301)
v_opendata_ctd_pav_tous.fid-26c1a268_169f8be4829_3d99	5123	Sud	Grenoble	6	7, 12  Allée des Frênes	Villeneuve	CS	collecte sélective	CE	enterré	5	Citec												5.736571	45.161174	POINT (5.736571484643002 45.16117442697492)
v_opendata_ctd_pav_tous.fid-26c1a268_169f8be4829_3d9a	5124	Sud	Grenoble	6	7, 12  Allée des Frênes	Villeneuve	OMR	ordures ménagères résiduelles	CE	enterré	5	Citec			double tambour			bon		2018-06				5.736531	45.161199	POINT (5.736531458512402 45.16119925857442)
v_opendata_ctd_pav_tous.fid-26c1a268_169f8be4829_3dcb	5173	Sud	Grenoble	6	Allée de la Colline / 50 Place des Géants	Villeneuve	OMR	ordures ménagères résiduelles	CE	enterré	5	Citec			double tambour			bon		2018-06				5.739003	45.162887	POINT (5.739003453893673 45.162887013837384)
v_opendata_ctd_pav_tous.fid-26c1a268_169f8be4829_3dcc	5174	Sud	Grenoble	6	Allée de la Colline / 50 Place des Géants	Villeneuve	OMR	ordures ménagères résiduelles	CE	enterré	5	Citec			double tambour			bon		2018-06				5.738964	45.162913	POINT (5.738963977502461 45.16291272631351)
v_opendata_ctd_pav_tous.fid-26c1a268_169f8be4829_3dcd	5175	Sud	Grenoble	6	Allée de la Colline / 50 Place des Géants	Villeneuve	CS	collecte sélective	CE	enterré	5	Citec												5.739	45.162913	POINT (5.738999933092055 45.162913443612844)
v_opendata_ctd_pav_tous.fid-26c1a268_169f8be4829_3dce	5176	Sud	Grenoble	6	2-4-6 Allée de la Colline	Villeneuve	OMR	ordures ménagères résiduelles	CE	enterré	5	Citec			double tambour			bon		2018-06				5.738197	45.163014	POINT (5.738197054085576 45.16301384452943)
v_opendata_ctd_pav_tous.fid-26c1a268_169f8be4829_3dcf	5177	Sud	Grenoble	6	2-4-6 Allée de la Colline	Villeneuve	OMR	ordures ménagères résiduelles	CE	enterré	5	Citec			double tambour			bon		2018-06				5.738192	45.163069	POINT (5.738191902721706 45.163069361785695)
v_opendata_ctd_pav_tous.fid-26c1a268_169f8be4829_3dd0	5178	Sud	Grenoble	6	2-4-6 Allée de la Colline	Villeneuve	CS	collecte sélective	CE	enterré	5	Citec												5.738195	45.163042	POINT (5.738195330633808 45.163041725937795)
v_opendata_ctd_pav_tous.fid-26c1a268_169f8be4829_3dd1	5179	Sud	Grenoble	6	7-8-10 Allée de la Colline	Villeneuve	OMR	ordures ménagères résiduelles	CE	enterré	5	Citec			double tambour			bon		2018-06				5.738189	45.16339	POINT (5.73818869049399 45.163389739428936)
v_opendata_ctd_pav_tous.fid-26c1a268_169f8be4829_3dd2	5180	Sud	Grenoble	6	7-8-10 Allée de la Colline	Villeneuve	OMR	ordures ménagères résiduelles	CE	enterré	5	Citec			double tambour			bon		2018-06				5.73822	45.163411	POINT (5.738219678470972 45.1634108490628)
v_opendata_ctd_pav_tous.fid-26c1a268_169f8be4829_3dd3	5181	Sud	Grenoble	6	7-8-10 Allée de la Colline	Villeneuve	CS	collecte sélective	CE	enterré	5	Citec												5.73825	45.163431	POINT (5.738249967163154 45.163430934558015)
v_opendata_ctd_pav_tous.fid-26c1a268_169f8be4829_3dd4	5182	Sud	Grenoble	6	34-38 Avenue La Bruyère	Villeneuve	OMR	ordures ménagères résiduelles	CE	enterré	5	Citec			double tambour			bon		2018-06				5.732802	45.166765	POINT (5.732802237402012 45.16676538581728)
